osm_id,name,pack_type,category,cuisine,distance_miles_from_rahway,rough_drive_minutes_from_rahway,within_45_min_model,team_use_case,address,city,website,phone,opening_hours,lat,lon,osm_url,data_confidence,recommendation_score,verify_before_booking
node/10292454904,The Coffee Box,food_drink,cafe,sandwich;brunch,0.1,8,yes,"low-key coffee, dessert, or small-group catch-up","1465, Irving Street, Rahway, NJ, 07065",Rahway,https://www.cofbx.com/,+1 732-943-2354,Mo-Su 07:45-16:00,40.6071158,-74.2754141,https://www.openstreetmap.org/node/10292454904,higher,163,yes
way/1125707923,Copacabana Coffee & Bagles,food_drink,cafe,bagel;coffee_shop,0.2,8,yes,"low-key coffee, dessert, or small-group catch-up","77, East Milton Avenue, Rahway, NJ, 07065",Rahway,https://copacabanacoffee.com/,+1 973-358-4381,Mo-Fr 06:00-16:00; Sa-Su 07:00-16:00,40.6056705,-74.2759798,https://www.openstreetmap.org/way/1125707923,higher,163,yes
way/1104787823,CubaNu Restaurant & Lounge,food_drink,restaurant: cuban,cuban,0.2,8,yes,team lunch or dinner,"1467, Main Street, Rahway, NJ, 07065",Rahway,https://cubanu.com/,+1 732-499-7100,"Su,Mo 14:00-22:00, Tu,We 11:00-23:30, Th 11:00-24:00, Fr 11:00-25:00, Sa 12:00-25:00",40.6062751,-74.273908,https://www.openstreetmap.org/way/1104787823,higher,163,yes
way/1106392728,Flynn's Pub House,food_drink,pub,,0.2,8,yes,after-work drinks or informal team social,"1482, Main Street, Rahway, NJ, 07065",Rahway,https://www.flynnspubhouse.com,+1 732-381-1066,"Mo closed; Tu-Th 16:00-24:00; Fr-Sa 11:00-25:00, Su 09:00-20:00",40.6066627,-74.2742899,https://www.openstreetmap.org/way/1106392728,higher,160,yes
way/1104795323,Hugo's Peruvian Restaurant,food_drink,restaurant: peruvian,peruvian,0.2,8,yes,team lunch or dinner,"1505-1507, Main Street, Rahway, NJ, 07065",Rahway,https://www.peruNJ.com,+1 732-827-5850,,40.6067937,-74.2736994,https://www.openstreetmap.org/way/1104795323,higher,159,yes
way/1106392732,il a forno a legna,food_drink,"restaurant: pizza, italian",pizza;italian,0.2,8,yes,casual team meal,"1464, Main Street, Rahway, NJ, 07065",Rahway,https://fornoonmain.com/,+1 732-382-6600,Mo-Tu 11:00-21:00; We-Sa 11:00-22:00; Su 11:00-21:00,40.6063869,-74.2743514,https://www.openstreetmap.org/way/1106392732,higher,163,yes
way/1126064093,Luciano's Ristorante,food_drink,"restaurant: italian, american",italian;american,0.2,8,yes,casual team meal,"1579, Main Street, Rahway, NJ, 07065",Rahway,https://www.lucianosristorante.com/,+1 732-815-1200,"We,Th 15:30-21:00; Fr 11:30-22:00; Sa 15:30-22:00; Su 15:30-21:00; Mo,Tu off",40.6081719,-74.2736389,https://www.openstreetmap.org/way/1126064093,higher,163,yes
way/1125707926,Mangos Grill,food_drink,restaurant,,0.2,8,yes,team lunch or dinner,"1348, Fulton Street, Rahway, NJ, 07065",Rahway,,,closed,40.6056187,-74.2761149,https://www.openstreetmap.org/way/1125707926,medium,138,yes
node/10297015917,Melao Cafe & Creamery,food_drink,cafe,sandwich;coffee_shop;ice_cream,0.2,8,yes,"low-key coffee, dessert, or small-group catch-up","1425, Irving Street, Rahway, NJ, 07065",Rahway,,+1 732-428-4558,Mo-Su 08:00-21:00,40.6063936,-74.2755692,https://www.openstreetmap.org/node/10297015917,higher,155,yes
way/1125707922,Michelino's Pizzaria,food_drink,restaurant: pizza,pizza,0.2,8,yes,casual team meal,"79, East Milton Avenue, Rahway, NJ, 07065",Rahway,https://www.michelinos-pizza.com/,+1-732-396-9229,Mo-Th 10:00-22:00; Fr-Sa 10:00-23:00; Su 11:00-22:00,40.6056503,-74.2758994,https://www.openstreetmap.org/way/1125707922,higher,163,yes
way/1104787821,Nancy's Townehouse,food_drink,"restaurant: italian, pizza",italian;pizza,0.2,8,yes,casual team meal,"1453, Main Street, Rahway, NJ, 07065",Rahway,https://www.nancystownhouse.com/,+1 732-388-8100,Tu-Th 12:00-21:00; Fr 12:00-22:00; Sa 16:00-22:00; Su 16:00-21:00; Mo closed,40.6060456,-74.2739682,https://www.openstreetmap.org/way/1104787821,higher,163,yes
node/10124155593,Rahway Creamery,food_drink,ice cream,,0.2,8,yes,"low-key coffee, dessert, or small-group catch-up","95, East Cherry Street, Rahway, NJ, 07065",Rahway,,,Mo-Th 11:00-22:00; Fr-Sa 11:00-24:00; Su 11:00-20:00,40.6068554,-74.2740624,https://www.openstreetmap.org/node/10124155593,medium,138,yes
node/11209543552,Rahway Kitty Hall,food_drink,cafe,,0.2,8,yes,"low-key coffee, dessert, or small-group catch-up","209, West Main Street, Rahway, NJ, 07065",Rahway,https://rahwaykittyhall.com/,,,40.6110615,-74.2767317,https://www.openstreetmap.org/node/11209543552,medium,142,yes
way/753058122,The Irving Inn Social,food_drink,bar,,0.2,8,yes,after-work drinks or informal team social,"1443, Irving Street, Rahway, NJ, 07065",Rahway,,+1 908-285-2330,We-Th 16:00-23:00; Fr-Sa 15:00-24:00; Su closed,40.606701,-74.2753036,https://www.openstreetmap.org/way/753058122,medium,142,yes
way/1104792844,The Litehouse,food_drink,pub,,0.2,8,yes,after-work drinks or informal team social,"1485, Main Street, Rahway, NJ, 07065",Rahway,,,,40.6064587,-74.2738591,https://www.openstreetmap.org/way/1104792844,medium,134,yes
way/1108411197,The Waiting Room,food_drink,restaurant,,0.2,8,yes,team lunch or dinner,"66, East Cherry Street, Rahway, NJ, 07065",Rahway,https://www.thewaitingroom.us/,+1 732-382-0900,"Mo-Th 11:00-24:00; Fr 11:00-25:00, Sa 11:00-26:00; Su 11:00-24:00",40.6071379,-74.274596,https://www.openstreetmap.org/way/1108411197,higher,160,yes
way/1104787817,Wet Ticket Brewery,food_drink,bar,,0.2,8,yes,after-work drinks or informal team social,"1435, Main Street, Rahway, NJ, 07065",Rahway,https://www.wetticketbrewing.com/,+1 848-666-7141,We 17:00-21:00; Th 16:00-21:00; Fr 16:00-22:00; Sa 12:00-22:00; Su 13:00-19:00,40.6058108,-74.2740483,https://www.openstreetmap.org/way/1104787817,higher,160,yes
node/13665982001,Blossoms Brunch Bar,food_drink,restaurant: breakfast,breakfast,0.5,9,yes,after-work drinks or informal team social,"289, Monroe Street, 07065",,https://blossomsbrunchbar.com/,+1-732-943-2663,Mo-Su 07:00-15:00,40.6084562,-74.2677021,https://www.openstreetmap.org/node/13665982001,higher,162,yes
node/6745034805,Tony's Pizza,food_drink,restaurant: pizza,pizza,0.9,10,yes,casual team meal,,,,,,40.6164135,-74.2911754,https://www.openstreetmap.org/node/6745034805,medium,131,yes
way/704026137,Stewart's Drive-In,food_drink,restaurant: burger,burger,1.0,10,yes,casual team meal,"347, Jacques Avenue, Rahway, NJ",Rahway,,,,40.5964521,-74.2900262,https://www.openstreetmap.org/way/704026137,medium,135,yes
node/1079085419,Buono Pizza,food_drink,restaurant,,1.1,10,yes,casual team meal,,,,,,40.6174178,-74.2952424,https://www.openstreetmap.org/node/1079085419,medium,127,yes
way/704024824,Galaxy Diner,food_drink,restaurant: american,american,1.1,10,yes,casual team meal,"293, Saint George's Avenue, Rahway, NJ",Rahway,,,,40.5957371,-74.2902455,https://www.openstreetmap.org/way/704024824,medium,134,yes
node/13144988372,Espressito Cafe,food_drink,cafe,,1.3,11,yes,"low-key coffee, dessert, or small-group catch-up","60, Westfield Avenue, Clark, NJ, 07066",Clark,https://www.espressitocafe.com,+1-848-304-3135,Mo-Fr 07:00-16:00; Sa 08:00-16:00; Su 09:00-14:00,40.6191869,-74.2974637,https://www.openstreetmap.org/node/13144988372,higher,157,yes
node/6535000285,Flaming Grill & Buffet,food_drink,restaurant,,1.3,11,yes,team lunch or dinner,"1701, West Edgar Rad, 07038",,,,,40.6124569,-74.2541349,https://www.openstreetmap.org/node/6535000285,medium,131,yes
node/1079085426,Pompeii Pizza,food_drink,restaurant,,1.3,11,yes,casual team meal,,,,,,40.6194456,-74.2978227,https://www.openstreetmap.org/node/1079085426,medium,127,yes
node/12363158592,Starbucks,food_drink,cafe,coffee_shop,1.7,11,yes,"low-key coffee, dessert, or small-group catch-up",,,,,,40.6195737,-74.2487113,https://www.openstreetmap.org/node/12363158592,medium,129,yes
way/1188548820,Applebee's,food_drink,restaurant: american,american,1.8,12,yes,casual team meal,"671, West Edgar Road, Linden, NJ, 07036",Linden,https://restaurants.applebees.com/en-us/nj/linden/671-west-edgar-rd.-96029,+1 908-523-1200,,40.6204805,-74.2480166,https://www.openstreetmap.org/way/1188548820,higher,155,yes
way/1247682159,Denny's,food_drink,restaurant: american,american,1.9,12,yes,casual team meal,"1286, St. George's Avenue, Avenel, NJ, 07001",Avenel,,,,40.5826965,-74.2927174,https://www.openstreetmap.org/way/1247682159,medium,132,yes
node/10747334448,Bamboo House,food_drink,restaurant: chinese,chinese,2.1,12,yes,team meal with a specific cuisine angle,"310, Inman Avenue, Colonia, NJ, 07067",Colonia,,+1-732-574-3665,Mo-Su 10:00-22:00,40.6003082,-74.3158702,https://www.openstreetmap.org/node/10747334448,higher,150,yes
node/9879176459,Colonia BBQ,food_drink,restaurant,,2.1,12,yes,casual team meal,,,,,,40.6003171,-74.3161578,https://www.openstreetmap.org/node/9879176459,medium,125,yes
node/9879176460,Colonia Pizza,food_drink,restaurant: pizza,pizza,2.1,12,yes,casual team meal,,,,,,40.5995246,-74.3162831,https://www.openstreetmap.org/node/9879176460,medium,128,yes
way/1360465917,The Kave,food_drink,restaurant,,2.1,12,yes,team lunch or dinner,"340, South Wood Avenue, Linden, NJ",Linden,,,,40.6279636,-74.2468559,https://www.openstreetmap.org/way/1360465917,medium,129,yes
way/380508157,Applebee's,food_drink,restaurant: american,american,2.2,12,yes,casual team meal,"1255, Raritan Road, Clark, NJ, 07066",Clark,https://restaurants.applebees.com/en-us/nj/clark/1255-raritan-rd.-78026,+1 732-381-1429,,40.6333153,-74.3043626,https://www.openstreetmap.org/way/380508157,higher,154,yes
node/11292153089,Blaze Pizza,food_drink,restaurant: pizza,pizza,2.2,12,yes,casual team meal,"1255, Raritan Road, Clark, NJ, 07066",Clark,https://locations.blazepizza.com/nj/clark/1255-raritan-rd,+1 848-666-1225,,40.6332484,-74.3036408,https://www.openstreetmap.org/node/11292153089,higher,154,yes
node/1277225877,Clark BBQ,food_drink,restaurant: spanish,spanish,2.2,12,yes,casual team meal,,,,,,40.6343774,-74.3024657,https://www.openstreetmap.org/node/1277225877,medium,128,yes
node/1078988580,Friendly's,food_drink,restaurant: american,american,2.2,12,yes,casual team meal,,,,,,40.6353342,-74.3004687,https://www.openstreetmap.org/node/1078988580,medium,128,yes
way/1190071722,Mister East,food_drink,bar,,2.2,12,yes,after-work drinks or informal team social,,,,,,40.6378696,-74.2646704,https://www.openstreetmap.org/way/1190071722,medium,125,yes
way/716005724,Molly Maguire's,food_drink,pub,,2.2,12,yes,after-work drinks or informal team social,,,,,,40.6293777,-74.3091797,https://www.openstreetmap.org/way/716005724,medium,125,yes
node/1277225884,Scaturro's,food_drink,restaurant: italian,italian,2.3,13,yes,team meal with a specific cuisine angle,,,,,,40.6348252,-74.3023799,https://www.openstreetmap.org/node/1277225884,medium,127,yes
way/716005722,Tarentella's,food_drink,restaurant: italian,italian,2.3,13,yes,team meal with a specific cuisine angle,,,,,,40.6297862,-74.3098549,https://www.openstreetmap.org/way/716005722,medium,127,yes
node/1277232398,Chili's,food_drink,restaurant: tex-mex,tex-mex,2.4,13,yes,team lunch or dinner,"225, Central Avenue, Clark, NJ, 07066",Clark,,,,40.6306307,-74.3116706,https://www.openstreetmap.org/node/1277232398,medium,131,yes
way/903623651,Colonia Dairy Maid,food_drink,ice cream,,2.4,13,yes,"low-key coffee, dessert, or small-group catch-up","1075, Saint George's Avenue, Colonia, NJ, 07067",Colonia,,+1-732-634-5885,Mo-Su 10:00-22:00,40.5755238,-74.2946039,https://www.openstreetmap.org/way/903623651,medium,136,yes
node/1277279751,Johnny K's,food_drink,restaurant,,2.4,13,yes,team lunch or dinner,,,,,,40.6273847,-74.3161435,https://www.openstreetmap.org/node/1277279751,medium,124,yes
node/4568677962,Mijo's Pizza,food_drink,restaurant: pizza,pizza,2.4,13,yes,casual team meal,"427, Lake Avenue, Colonia, NJ, 07067",Colonia,https://mijospizzeria.com/,+1 732-382-2992,,40.6061697,-74.3227608,https://www.openstreetmap.org/node/4568677962,higher,153,yes
node/9879365118,China Garden,food_drink,restaurant: chinese,chinese,2.5,13,yes,team meal with a specific cuisine angle,,,,,,40.5995953,-74.3241807,https://www.openstreetmap.org/node/9879365118,medium,127,yes
node/9879347416,Karly's Pizza,food_drink,restaurant: pizza,pizza,2.5,13,yes,casual team meal,,,,,,40.5996612,-74.324184,https://www.openstreetmap.org/node/9879347416,medium,127,yes
node/9878188241,Manna Sushi,food_drink,restaurant: sushi,sushi,2.6,13,yes,team meal with a specific cuisine angle,,,,,,40.5986871,-74.3250277,https://www.openstreetmap.org/node/9878188241,medium,127,yes
node/9005850756,Perkins,food_drink,restaurant: american,american,2.6,13,yes,casual team meal,"1009, Saint Georges Avenue, Colonia, NJ, 07067",Colonia,https://www.perkinsrestaurants.com/locations/us/nj/colonia/1009-st--georges-avenue/,+1-732-634-7112,Su 08:00-17:00; Mo-Th 09:00-18:00; Fr-Sa 08:00-18:00,40.5728681,-74.2943154,https://www.openstreetmap.org/node/9005850756,higher,157,yes
node/13726499659,Tim Hortons,food_drink,cafe,coffee_shop,2.6,13,yes,"low-key coffee, dessert, or small-group catch-up",,,,,,40.5913796,-74.322904,https://www.openstreetmap.org/node/13726499659,medium,127,yes
node/10858986933,Venemex Food,food_drink,restaurant: venezuelan,venezuelan,2.6,13,yes,team lunch or dinner,"559, Inman Avenue, Colonia, NJ, 07067",Colonia,,,,40.598648,-74.3262744,https://www.openstreetmap.org/node/10858986933,medium,131,yes
way/719515110,Ye Olde Rathskeller,food_drink,pub,,2.6,13,yes,after-work drinks or informal team social,"523, Centennial Avenue, Cranford, NJ, 07016",Cranford,,+1 908-272-9511,,40.6452999,-74.2899996,https://www.openstreetmap.org/way/719515110,medium,132,yes
way/719515109,Triestina Ristorante,food_drink,restaurant: italian,italian,2.7,13,yes,team meal with a specific cuisine angle,,,,,,40.6460483,-74.2905469,https://www.openstreetmap.org/way/719515109,medium,126,yes
node/10858986954,Luna piza,food_drink,restaurant: pizza,pizza,2.8,14,yes,casual team meal,"624, Inman Avenue, Colonia, NJ, 07067",Colonia,,,,40.5987472,-74.3294257,https://www.openstreetmap.org/node/10858986954,medium,130,yes
way/519160833,Mulberry Street Restaurant,food_drink,restaurant: italian,italian,2.8,14,yes,team meal with a specific cuisine angle,"739, Rahway Avenue, Woodbridge, NJ, 07095",Woodbridge,https://www.mulberrystreetrestaurant.com/,+1 732-634-4699,Mo off; Tu-Th 11:30-22:00; Fr 11:30-23:00; Sa 16:00-23:00; Su 15:00-21:00,40.5672031,-74.272679,https://www.openstreetmap.org/way/519160833,higher,156,yes
node/2145877981,The Shannon Rose Irish Pub,food_drink,restaurant,,2.8,14,yes,after-work drinks or informal team social,"St. Georges Avenue, Woodbridge, 07095",Woodbridge,,,,40.5687475,-74.2906386,https://www.openstreetmap.org/node/2145877981,medium,127,yes
node/10858986958,Three in One,food_drink,restaurant,,2.8,14,yes,team lunch or dinner,"616, Inman Avenue, Colonia, NJ, 07067",Colonia,,,,40.5988001,-74.3290111,https://www.openstreetmap.org/node/10858986958,medium,127,yes
node/10091105067,Bus Stop Diner,food_drink,restaurant,,2.9,14,yes,casual team meal,"793, Roosevelt Avenue, Carteret, NJ, 07008",Carteret,,,,40.5885633,-74.2282283,https://www.openstreetmap.org/node/10091105067,medium,127,yes
node/10091105069,Khalsa Sweet House,food_drink,restaurant: indian,indian,2.9,14,yes,team meal with a specific cuisine angle,"783, Roosevelt Avenue, Carteret, NJ, 07008",Carteret,,,,40.5883915,-74.2282579,https://www.openstreetmap.org/node/10091105069,medium,130,yes
node/10091105066,The Crab General,food_drink,restaurant: seafood,seafood,2.9,14,yes,team lunch or dinner,"795, Roosevelt Avenue, Carteret, NJ, 07008",Carteret,http://www.thecrabgeneral.com/,+1-732-366-4035,,40.5887334,-74.2281801,https://www.openstreetmap.org/node/10091105066,higher,152,yes
way/685085309,Maglione's Italian Ice,food_drink,ice cream,,3.0,14,yes,"low-key coffee, dessert, or small-group catch-up",,,,,,40.5757361,-74.3164139,https://www.openstreetmap.org/way/685085309,medium,123,yes
node/2295356898,Rita's Italian Ice,food_drink,ice cream,ice_cream,3.0,14,yes,"low-key coffee, dessert, or small-group catch-up","755, St. George's Avenue, Woodbridge, 07095",Woodbridge,http://www.ritasfranchises.com/stores/store.cfm/Woodbridge-07095/store/584,+1 732-602-9874,,40.5653634,-74.2879613,https://www.openstreetmap.org/node/2295356898,higher,152,yes
node/6728544560,100 Steps,food_drink,restaurant,,3.1,14,yes,team lunch or dinner,,,,,,40.6507768,-74.295949,https://www.openstreetmap.org/node/6728544560,medium,122,yes
node/6728544491,Calabria,food_drink,restaurant: pizza,pizza,3.1,14,yes,casual team meal,"209, Centennial Avenue, Cranford, NJ, 07016",Cranford,,+1 908-272-8080,,40.6507794,-74.2963719,https://www.openstreetmap.org/node/6728544491,medium,133,yes
node/6728544500,East Wok,food_drink,"restaurant: asian, thai, chinese",asian;thai;chinese,3.1,14,yes,team meal with a specific cuisine angle,,,,+1 908-276-3335,,40.6506115,-74.2961949,https://www.openstreetmap.org/node/6728544500,medium,129,yes
way/716002469,Wasai,food_drink,restaurant,,3.1,14,yes,team lunch or dinner,,,,,,40.6502122,-74.2958962,https://www.openstreetmap.org/way/716002469,medium,122,yes
node/631381632,Dave's Big Size Pizza,food_drink,restaurant,,3.2,14,yes,casual team meal,,,,,,40.65497,-74.2774746,https://www.openstreetmap.org/node/631381632,medium,122,yes
node/631381674,Lin's Garden,food_drink,restaurant,,3.2,14,yes,team lunch or dinner,,,,,,40.6549049,-74.2775122,https://www.openstreetmap.org/node/631381674,medium,122,yes
node/2064576303,Bombay Talk,food_drink,restaurant: indian,indian,3.4,15,yes,team meal with a specific cuisine angle,"1358, Oak Tree Road, Iselin, NJ, 08830",Iselin,https://www.bombaytalkusa.com/,+1 732-283-0066,"Mo-Th,Su 11:30-21:30; Fr-Sa 11:30-22:00",40.5739904,-74.3252001,https://www.openstreetmap.org/node/2064576303,higher,155,yes
node/12055566697,Pret,food_drink,cafe,coffee_shop,3.4,15,yes,"low-key coffee, dessert, or small-group catch-up",,,,,,40.5599205,-74.2646882,https://www.openstreetmap.org/node/12055566697,medium,125,yes
node/8551448369,Starbucks,food_drink,cafe,coffee_shop,3.4,15,yes,"low-key coffee, dessert, or small-group catch-up","Woodbridge, NJ, 07095",Woodbridge,https://www.starbucks.com/store-locator/store/1025524/nj-tpke-thomas-edison-plaza-so-thomas-edison-travel-plaza-milepost-92-9-woodbridg,+1 732-750-8779,,40.5604273,-74.2645106,https://www.openstreetmap.org/node/8551448369,higher,151,yes
node/12055545430,Thomas Edison Service Center,food_drink,food court,,3.4,15,yes,"low-key coffee, dessert, or small-group catch-up",,,,,,40.5601067,-74.2647089,https://www.openstreetmap.org/node/12055545430,medium,122,yes
node/6747068567,A La Mode Creamery,food_drink,ice cream,,3.5,15,yes,"low-key coffee, dessert, or small-group catch-up",,,,,,40.6548453,-74.3054354,https://www.openstreetmap.org/node/6747068567,medium,121,yes
node/6154564492,Big Apple Pizza,food_drink,restaurant: pizza,pizza,3.5,15,yes,casual team meal,"13, Walnut Avenue, Cranford, NJ, 07016",Cranford,,,,40.6547406,-74.304368,https://www.openstreetmap.org/node/6154564492,medium,128,yes
way/643272496,Bombay Paratha,food_drink,restaurant: indian,indian,3.5,15,yes,team meal with a specific cuisine angle,"1392, Oak Tree Road, Iselin, NJ, 08830",Iselin,,,Mo-Th 10:00-21:45; Fr-Su 10:00-22:00,40.5739025,-74.3262932,https://www.openstreetmap.org/way/643272496,medium,132,yes
node/6746752795,Cafe Paris,food_drink,restaurant: french,french,3.5,15,yes,"low-key coffee, dessert, or small-group catch-up",,,,,,40.6542713,-74.3046124,https://www.openstreetmap.org/node/6746752795,medium,124,yes
node/6747068572,Cafe Teasia,food_drink,cafe,,3.5,15,yes,"low-key coffee, dessert, or small-group catch-up",,,,,,40.6545604,-74.3053153,https://www.openstreetmap.org/node/6747068572,medium,121,yes
node/6746735156,Ciao Bello,food_drink,restaurant: italian,italian,3.5,15,yes,team meal with a specific cuisine angle,,,,,,40.6547614,-74.3020187,https://www.openstreetmap.org/node/6746735156,medium,124,yes
way/657096787,Cranford Hotel,food_drink,restaurant,,3.5,15,yes,team lunch or dinner,,,,,,40.6549225,-74.3048693,https://www.openstreetmap.org/way/657096787,medium,121,yes
node/6154564491,Cranford's Best Bagels and Deli,food_drink,"restaurant: bagel, breakfast",bagel;breakfast,3.5,15,yes,team lunch or dinner,"107, South Avenue East, Cranford, NJ, 07016",Cranford,,,,40.6547292,-74.303982,https://www.openstreetmap.org/node/6154564491,medium,128,yes
way/643272494,Desi Galaxy,food_drink,food court,indian,3.5,15,yes,team meal with a specific cuisine angle,"1396, Oak Tree Road, Iselin, NJ, 08830",Iselin,,,Mo-Su 07:00-23:45,40.5738915,-74.3264434,https://www.openstreetmap.org/way/643272494,medium,132,yes
node/774237628,José Tejas,food_drink,"restaurant: tex-mex, cajun",tex-mex;cajun,3.5,15,yes,team lunch or dinner,,,http://www.josetejas.com/,+17322833883,,40.5611703,-74.3010543,https://www.openstreetmap.org/node/774237628,higher,146,yes
node/11087746605,Kabab & Biryani,food_drink,restaurant,,3.5,15,yes,team lunch or dinner,"1404, Oak Tree Road, 08830",,,,"Mo-Fr 11:00-23:00; Sa,Su 10:00-23:00",40.5737724,-74.3266347,https://www.openstreetmap.org/node/11087746605,medium,129,yes
way/643272503,Kandahar,food_drink,"restaurant: turkish, afghan",turkish;afghan,3.5,15,yes,team lunch or dinner,"1380, Oak Tree Road, Iselin, NJ, 08830",Iselin,http://kandaharrestaurant.com/,+1 732-283-0900,"Mo-Th,Su 11:00-21:30; Fr-Sa 11:00-22:30",40.5739518,-74.325904,https://www.openstreetmap.org/way/643272503,higher,154,yes
node/1993198853,Mr J's,food_drink,restaurant,,3.5,15,yes,team lunch or dinner,,,,,,40.6546902,-74.3043161,https://www.openstreetmap.org/node/1993198853,medium,121,yes
node/1993198873,One Walnut,food_drink,restaurant: chinese,chinese,3.5,15,yes,team meal with a specific cuisine angle,,,,,,40.6549953,-74.3044337,https://www.openstreetmap.org/node/1993198873,medium,124,yes
node/6747068552,Pairings Palate & Plate,food_drink,restaurant,,3.5,15,yes,team lunch or dinner,"10, Walnut Avenue, Cranford, NJ, 07016",Cranford,,,,40.6546991,-74.3047518,https://www.openstreetmap.org/node/6747068552,medium,125,yes
node/6747068570,Ramola's,food_drink,restaurant: seafood,seafood,3.5,15,yes,team lunch or dinner,,,,,,40.6545278,-74.3057476,https://www.openstreetmap.org/node/6747068570,medium,124,yes
node/6387898050,River and Rail,food_drink,restaurant,,3.5,15,yes,team lunch or dinner,,,,,,40.6548242,-74.3014412,https://www.openstreetmap.org/node/6387898050,medium,121,yes
way/474475226,Riverside Inn,food_drink,pub,,3.5,15,yes,after-work drinks or informal team social,,,,,,40.6564178,-74.300962,https://www.openstreetmap.org/way/474475226,medium,121,yes
way/643272498,Shalimar,food_drink,restaurant: pakistani,pakistani,3.5,15,yes,team lunch or dinner,"1388, Oak Tree Road, Iselin, NJ, 08830",Iselin,,,"Su-Th 12:00-03:00, Fr,Sa 12:00-04:00",40.573916,-74.3261735,https://www.openstreetmap.org/way/643272498,medium,132,yes
node/6387898049,Starbucks,food_drink,cafe,coffee_shop,3.5,15,yes,"low-key coffee, dessert, or small-group catch-up","200, S Avenue East, Cranford, NJ, 07016",Cranford,https://www.starbucks.com/store-locator/store/1006676/cranford-train-station-200-s-ave-e-suite-101-cranford-nj-070162989-us,+1 908-272-3967,,40.6546597,-74.3028219,https://www.openstreetmap.org/node/6387898049,higher,150,yes
way/543976700,Starbucks,food_drink,cafe,coffee_shop,3.5,15,yes,"low-key coffee, dessert, or small-group catch-up","345, North Avenue East, Cranford, NJ, 07016",Cranford,https://www.starbucks.com/store-locator/store/1008821/cranford-n-ave-e-drive-thru-345-n-ave-e-cranford-nj-070162445-us,+1 908-272-7397,,40.6582071,-74.2911385,https://www.openstreetmap.org/way/543976700,higher,150,yes
node/540396338,Sun Tavern,food_drink,bar,,3.5,15,yes,after-work drinks or informal team social,,,,,,40.6587962,-74.2823671,https://www.openstreetmap.org/node/540396338,medium,121,yes
node/13269378683,The Garrison,food_drink,bar,,3.5,15,yes,after-work drinks or informal team social,,,,,,40.654435,-74.303661,https://www.openstreetmap.org/node/13269378683,medium,121,yes
way/189050058,The Thirsty Turtle,food_drink,restaurant,,3.5,15,yes,team lunch or dinner,,,,,,40.6541381,-74.3061471,https://www.openstreetmap.org/way/189050058,medium,121,yes
node/1993610671,Ambeli Greek,food_drink,restaurant,,3.6,15,yes,team lunch or dinner,,,,,,40.6564976,-74.3037726,https://www.openstreetmap.org/node/1993610671,medium,121,yes
node/6701034894,Antojitos Mexicanos,food_drink,restaurant: mexican,mexican,3.6,15,yes,casual team meal,,,,,,40.6589927,-74.2636061,https://www.openstreetmap.org/node/6701034894,medium,124,yes
node/6373052924,Avenue East,food_drink,restaurant: asian,asian,3.6,15,yes,team lunch or dinner,,,,,,40.6562552,-74.3036744,https://www.openstreetmap.org/node/6373052924,medium,124,yes
way/682022608,Bar Americana,food_drink,bar,,3.6,15,yes,after-work drinks or informal team social,,,,,,40.6561894,-74.3024492,https://www.openstreetmap.org/way/682022608,medium,121,yes
node/6744481717,BBQ,food_drink,restaurant: barbecue,barbecue,3.6,15,yes,after-work drinks or informal team social,,,,,,40.6586874,-74.2629799,https://www.openstreetmap.org/node/6744481717,medium,124,yes
way/1097319755,Chris Michael's Steakhouse,food_drink,restaurant,,3.6,15,yes,team lunch or dinner,"40, Oakwood Avenue, Woodbridge, NJ, 07095",Woodbridge,https://www.chrismichaelsnj.com/,+1 732-889-7573,Mo 16:00-22:00; Tu-Th 11:30-22:00; Fr 11:30-23:00; Sa 14:00-23:00; Su 14:00-21:00,40.558113,-74.2940425,https://www.openstreetmap.org/way/1097319755,higher,151,yes
way/854540951,Climax Brewing,food_drink,pub,,3.6,15,yes,after-work drinks or informal team social,"112, Valley Road, Roselle Park, NJ, 07204",Roselle Park,http://www.climaxbrewing.com/index.html,+1-908-620-9585,,40.6597434,-74.2828375,https://www.openstreetmap.org/way/854540951,higher,147,yes
node/6701018764,Cool Runnings Cuisine,food_drink,restaurant,,3.6,15,yes,team lunch or dinner,,,https://www.coolrunningsnj.com/,+1 908-245-2069,,40.6588274,-74.2623133,https://www.openstreetmap.org/node/6701018764,higher,143,yes
node/6704429215,Cranford Station House,food_drink,restaurant,,3.6,15,yes,team lunch or dinner,,,,,,40.6559825,-74.3035041,https://www.openstreetmap.org/node/6704429215,medium,121,yes
node/6452619202,Craven BBQ,food_drink,restaurant: portuguese,portuguese,3.6,15,yes,casual team meal,,,,,,40.6560232,-74.305607,https://www.openstreetmap.org/node/6452619202,medium,124,yes
node/6387889658,Dim Sum,food_drink,restaurant: chinese,chinese,3.6,15,yes,team meal with a specific cuisine angle,,,,,,40.6556578,-74.3054919,https://www.openstreetmap.org/node/6387889658,medium,124,yes
node/1993610699,Emma's Pizza,food_drink,restaurant,,3.6,15,yes,casual team meal,,,,,,40.656663,-74.3035701,https://www.openstreetmap.org/node/1993610699,medium,121,yes
node/540396044,Frenchy's,food_drink,bar,,3.6,15,yes,after-work drinks or informal team social,,,,,,40.6597534,-74.2799124,https://www.openstreetmap.org/node/540396044,medium,121,yes
node/6436960894,Garlic Roase,food_drink,restaurant,,3.6,15,yes,team lunch or dinner,,,,,,40.6558393,-74.30497,https://www.openstreetmap.org/node/6436960894,medium,121,yes
node/6436965787,Hayaku Japanese Hibachi,food_drink,restaurant: japanese,japanese,3.6,15,yes,team meal with a specific cuisine angle,"41, North Avenue East, Cranford, NJ, 07016",Cranford,https://www.hayakucranford.com,+1 908-312-9089,Mo-Th 11:00-21:00; Fr 11:00-20:00; Sa 13:00-21:00; Su Closed,40.6565905,-74.3018478,https://www.openstreetmap.org/node/6436965787,higher,154,yes
node/6373052922,Hunan Wok,food_drink,restaurant: chinese,chinese,3.6,15,yes,team meal with a specific cuisine angle,"43, North Avenue East, Cranford, NJ, 07016",Cranford,https://myhunanwok.com/,+1 908-272-2272,Mo 11:00-20:00; Tu Closed; We-Th 11:00-20:00; Fr-Sa 11:00-20:30; Su 11:00-20:00,40.656584,-74.3018973,https://www.openstreetmap.org/node/6373052922,higher,154,yes
node/1996953161,Il Gabbiano Bistro Italiano,food_drink,restaurant: italian,italian,3.6,15,yes,team meal with a specific cuisine angle,,,,,,40.6545909,-74.3079421,https://www.openstreetmap.org/node/1996953161,medium,124,yes
node/6701018760,Los Primos,food_drink,restaurant: mexican,mexican,3.6,15,yes,casual team meal,,,,,,40.6591265,-74.2625037,https://www.openstreetmap.org/node/6701018760,medium,124,yes
node/6436960896,Lydias,food_drink,restaurant: cuban,cuban,3.6,15,yes,team lunch or dinner,,,,,,40.657107,-74.3031985,https://www.openstreetmap.org/node/6436960896,medium,124,yes
node/6436965789,Marinos,food_drink,restaurant: seafood,seafood,3.6,15,yes,team lunch or dinner,,,,,,40.6563123,-74.3020367,https://www.openstreetmap.org/node/6436965789,medium,124,yes
node/6386961823,Middle Eastern Food,food_drink,restaurant,,3.6,15,yes,team lunch or dinner,,,,,,40.6563527,-74.3035855,https://www.openstreetmap.org/node/6386961823,medium,121,yes
node/6452601892,Mizu Sushi,food_drink,restaurant: sushi,sushi,3.6,15,yes,team meal with a specific cuisine angle,,,,,,40.6567492,-74.3035021,https://www.openstreetmap.org/node/6452601892,medium,124,yes
node/6701018762,Naples Pizza,food_drink,restaurant: pizza,pizza,3.6,15,yes,casual team meal,,,,+1 908-241-4440,,40.6591164,-74.2626016,https://www.openstreetmap.org/node/6701018762,medium,128,yes
node/6744481734,Rita's Italian Ice,food_drink,ice cream,ice_cream,3.6,15,yes,"low-key coffee, dessert, or small-group catch-up",,,,,,40.6594313,-74.2636982,https://www.openstreetmap.org/node/6744481734,medium,124,yes
way/685337851,Rustic Mill Diner,food_drink,restaurant,,3.6,15,yes,casual team meal,,,,,,40.6554944,-74.3075591,https://www.openstreetmap.org/way/685337851,medium,121,yes
node/6422190668,Siam Inn,food_drink,restaurant: thai,thai,3.6,15,yes,team meal with a specific cuisine angle,,,,,,40.6558517,-74.3073442,https://www.openstreetmap.org/node/6422190668,medium,124,yes
node/1996953156,Sushi Time 898,food_drink,restaurant: japanese,japanese,3.6,15,yes,team meal with a specific cuisine angle,,,,,,40.6545298,-74.3079266,https://www.openstreetmap.org/node/1996953156,medium,124,yes
node/1993610701,Teaspoon Cafe,food_drink,restaurant,,3.6,15,yes,"low-key coffee, dessert, or small-group catch-up","21, North Union Avenue, Cranford, NJ, 07016",Cranford,,,,40.6563715,-74.3038819,https://www.openstreetmap.org/node/1993610701,medium,125,yes
node/6373052925,Track 5 Coffee,food_drink,cafe,,3.6,15,yes,"low-key coffee, dessert, or small-group catch-up",,,,,,40.6554875,-74.3051767,https://www.openstreetmap.org/node/6373052925,medium,121,yes
node/5914375448,Vanilla Bean,food_drink,ice cream,ice_cream,3.6,15,yes,"low-key coffee, dessert, or small-group catch-up",,,,,,40.6558391,-74.304893,https://www.openstreetmap.org/node/5914375448,medium,124,yes
node/6460876486,Vinny's,food_drink,restaurant: pizza,pizza,3.6,15,yes,casual team meal,,,,,,40.6561219,-74.305787,https://www.openstreetmap.org/node/6460876486,medium,124,yes
node/6374702852,Yale Terrace Brewery,food_drink,pub,,3.6,15,yes,after-work drinks or informal team social,"26, Eastman Street, Cranford, NJ, 07016",Cranford,https://www.ytbrewery.com/,,,40.656083,-74.305723,https://www.openstreetmap.org/node/6374702852,medium,133,yes
node/6701034895,Yeung's Kitchen,food_drink,restaurant: chinese,chinese,3.6,15,yes,team meal with a specific cuisine angle,,,,,,40.6589612,-74.2636008,https://www.openstreetmap.org/node/6701034895,medium,124,yes
node/11139817976,Adebola African Restaurant,food_drink,restaurant,,3.7,15,yes,team lunch or dinner,,,,,,40.5574285,-74.2990135,https://www.openstreetmap.org/node/11139817976,medium,121,yes
node/11139863882,Applebee's,food_drink,restaurant: american,american,3.7,15,yes,casual team meal,,,https://restaurants.applebees.com/en-us/nj/woodbridge/251-woodbridge-center-drive-92014,+1 732-855-5300,,40.5571235,-74.299732,https://www.openstreetmap.org/node/11139863882,higher,146,yes
node/6436960892,Bel Giardino,food_drink,restaurant: pizza,pizza,3.7,15,yes,casual team meal,,,,+1 908-272-2500,,40.6563917,-74.3061227,https://www.openstreetmap.org/node/6436960892,medium,128,yes
node/540396001,Cascio's,food_drink,bar,,3.7,15,yes,after-work drinks or informal team social,,,,,,40.6611793,-74.2771572,https://www.openstreetmap.org/node/540396001,medium,121,yes
node/11139817980,Dave & Buster's,food_drink,restaurant: american,american,3.7,15,yes,casual team meal,"274, Woodbridge Center Drive, Woodbridge, NJ",Woodbridge,https://www.daveandbusters.com/us/en/about/locations/woodbridge-middlesex,+1 973-435-9800,"Mo-Th 11:00-24:00; Fr 11:00-01:00, Sa 10:00-01:00, Su 10:00-24:00",40.5572854,-74.3003024,https://www.openstreetmap.org/node/11139817980,higher,154,yes
way/643272509,Egg Mania,food_drink,restaurant: indian,indian,3.7,15,yes,team meal with a specific cuisine angle,"1546, Oak Tree Road, Iselin, NJ, 08830",Iselin,https://www.eggmania.com/,+1 732-379-4959,Mo-Th 12:00-22:30; Fr 12:00-23:30; Sa 11:00-23:30; Su 11:00-22:30,40.5734133,-74.3321071,https://www.openstreetmap.org/way/643272509,higher,154,yes
node/540397814,Frosty Freeze,food_drink,ice cream,,3.7,15,yes,"low-key coffee, dessert, or small-group catch-up",,,,,,40.6545834,-74.3139185,https://www.openstreetmap.org/node/540397814,medium,121,yes
way/457104221,Mi Ranchito,food_drink,restaurant,,3.7,15,yes,team lunch or dinner,"51-B, Main Street, Woodbridge Township, NJ, 07095",Woodbridge Township,,,,40.5544707,-74.2779698,https://www.openstreetmap.org/way/457104221,medium,125,yes
node/6704344656,Mr Bin,food_drink,restaurant: sushi,sushi,3.7,15,yes,team meal with a specific cuisine angle,,,,,,40.6575236,-74.303137,https://www.openstreetmap.org/node/6704344656,medium,124,yes
node/6704344657,Pizza House Pizza Chef,food_drink,restaurant: pizza,pizza,3.7,15,yes,casual team meal,,,,,,40.6575053,-74.30309,https://www.openstreetmap.org/node/6704344657,medium,124,yes
node/11139863817,Real Fruit Bubble Tea,food_drink,cafe,bubble_tea,3.7,15,yes,"low-key coffee, dessert, or small-group catch-up",,,,,,40.5561845,-74.2976815,https://www.openstreetmap.org/node/11139863817,medium,124,yes
way/643272514,Red Chutney,food_drink,"restaurant: south_indian, indian, chinese",south_indian;indian;chinese,3.7,15,yes,team meal with a specific cuisine angle,,,,,,40.5735533,-74.3321195,https://www.openstreetmap.org/way/643272514,medium,124,yes
node/11139863881,Red Robin,food_drink,restaurant: burger,burger,3.7,15,yes,casual team meal,"264, Woodbridge Center Drive",,https://www.redrobin.com/locations/nj/woodbridge/woodbridge-660,,,40.5570808,-74.3009114,https://www.openstreetmap.org/node/11139863881,higher,146,yes
node/6001023799,San Remo Pizza,food_drink,restaurant,,3.7,15,yes,casual team meal,"87, Main Street, Woodbridge, NJ, 07095",Woodbridge,https://www.sanremowoodbridge.com/,+1 732-634-7151,Mo-Sa 11:00-23:00; Su 12:00-22:30,40.5539966,-74.2801068,https://www.openstreetmap.org/node/6001023799,higher,151,yes
node/11139818000,Starbucks,food_drink,cafe,coffee_shop,3.7,15,yes,"low-key coffee, dessert, or small-group catch-up","250, Woodbridge Center, Woodbridge Township, NJ, 07095",Woodbridge Township,https://www.starbucks.com/store-locator/store/1031511/woodbridge-mall-250-woodbridge-center-woodbridge-township-nj-07095,+1 646-359-3109,,40.5565705,-74.2991824,https://www.openstreetmap.org/node/11139818000,higher,150,yes
way/643272506,Sukhadia's Fresh Kitchen & Indian Bistro,food_drink,cafe,indian,3.7,15,yes,"low-key coffee, dessert, or small-group catch-up","1507, Oak Tree Road, Isela, NJ, 08830",Isela,https://www.sukhadia.com/store/gokul-sukhadia-s-iselin-nj,,Mo-Fr 09:00-21:00; Sa-Su 09:00-22:00,40.5729245,-74.3311154,https://www.openstreetmap.org/way/643272506,higher,150,yes
way/720388495,Sunrise Diner,food_drink,restaurant,,3.7,15,yes,casual team meal,,,,,,40.6616305,-74.2666028,https://www.openstreetmap.org/way/720388495,medium,121,yes
way/1190382214,TGI Fridays,food_drink,restaurant: american,american,3.7,15,yes,casual team meal,"400, Park Avenue South, Linden, NJ, 07036",Linden,https://locations.tgifridays.com/nj/linden/400-south-park-ave.html,,,40.645898,-74.2280253,https://www.openstreetmap.org/way/1190382214,higher,146,yes
way/464618964,The Reo Diner,food_drink,restaurant,,3.7,15,yes,casual team meal,"392, Amboy Avenue, Woodbridge, NJ, 07095",Woodbridge,https://www.reodiner.com/,+1 732-634-9200,07:00-23:00,40.5541802,-74.2824428,https://www.openstreetmap.org/way/464618964,higher,151,yes
node/874836117,WHITE ROSE SYSTEM,food_drink,restaurant,,3.7,15,yes,team lunch or dinner,,,,,,40.6608614,-74.2603683,https://www.openstreetmap.org/node/874836117,medium,121,yes
way/457098926,Woodbridge Brewing Co.,food_drink,bar,,3.7,15,yes,after-work drinks or informal team social,"33, Main Street, Woodbridge, 07095",Woodbridge,https://woodbridgebrewingco.com/,+1 732-634-2929,"Mo-Th 11:30-01:00, Fr-Sa 11:30-02:00, Su 10:00-01:00",40.5546665,-74.277194,https://www.openstreetmap.org/way/457098926,higher,151,yes
node/6641692493,Yo Delight,food_drink,cafe,ice_cream,3.7,15,yes,"low-key coffee, dessert, or small-group catch-up","82, Main Street, Woodbridge, NJ, 07095",Woodbridge,https://www.yodelightwoodbridge.com/,+1 732-582-6130,Mo-Th 15:00-21:00; Fr 15:00-21:30; Sa 14:00-21:30; Su 14:00-21:00,40.5543323,-74.279872,https://www.openstreetmap.org/node/6641692493,higher,154,yes
node/11139817990,Cold Stone Creamery,food_drink,ice cream,ice_cream,3.8,16,yes,"low-key coffee, dessert, or small-group catch-up",,,,,,40.5565075,-74.2995079,https://www.openstreetmap.org/node/11139817990,medium,124,yes
way/686906326,Crossroads,food_drink,bar,,3.8,16,yes,after-work drinks or informal team social,,,,,,40.6543843,-74.3185318,https://www.openstreetmap.org/way/686906326,medium,121,yes
way/1272919827,Dowling's Irish Pub & Restaurant,food_drink,pub,,3.8,16,yes,after-work drinks or informal team social,,,,,,40.6621969,-74.2638518,https://www.openstreetmap.org/way/1272919827,medium,121,yes
way/469216462,Garwood Rest,food_drink,bar,,3.8,16,yes,after-work drinks or informal team social,,,,,,40.6517254,-74.321735,https://www.openstreetmap.org/way/469216462,medium,121,yes
node/11139863866,King Chef,food_drink,restaurant: chinese,chinese,3.8,16,yes,team meal with a specific cuisine angle,,,,,,40.5561503,-74.2998524,https://www.openstreetmap.org/node/11139863866,medium,124,yes
node/6462714890,Panda House,food_drink,restaurant: asian,asian,3.8,16,yes,team lunch or dinner,,,,,,40.6515503,-74.3236174,https://www.openstreetmap.org/node/6462714890,medium,124,yes
node/12964903270,Penstock Coffee Roasters,food_drink,cafe,,3.8,16,yes,"low-key coffee, dessert, or small-group catch-up","123, Chestnut Street",,,,Mo-Su 08:00-14:00,40.6624479,-74.2640041,https://www.openstreetmap.org/node/12964903270,medium,129,yes
way/643272535,Rasoi II,food_drink,restaurant: indian,indian,3.8,16,yes,team meal with a specific cuisine angle,,,,,,40.5727176,-74.333905,https://www.openstreetmap.org/way/643272535,medium,124,yes
node/11345474829,Stephanie's BBQ II (Roselle Park),food_drink,restaurant: barbecue,barbecue,3.8,16,yes,after-work drinks or informal team social,,,,,,40.6623077,-74.2606103,https://www.openstreetmap.org/node/11345474829,medium,124,yes
node/6438927953,Magic Grill,food_drink,restaurant: asian,asian,3.9,16,yes,team lunch or dinner,,,,,,40.6542247,-74.3195735,https://www.openstreetmap.org/node/6438927953,medium,123,yes
node/13740785903,Mama's Pizzeria & Restaurant,food_drink,"restaurant: italian, pasta, pizza",italian;pasta;pizza,3.9,16,yes,casual team meal,"347, South Avenue, 07027",,,+1-908-418-5603,Tu-Su 11:00-21:00,40.6514016,-74.3243603,https://www.openstreetmap.org/node/13740785903,higher,145,yes
way/1249366076,Olive Garden,food_drink,restaurant: italian,italian,3.9,16,yes,team meal with a specific cuisine angle,"510, Woodbridge Center Drive, Woodbridge, NJ, 07095",Woodbridge,https://olivegarden.com/locations/nj/woodbridge/woodbridge-center/1745,+1 732-726-3191,"Mo-Th,Su 11:00-22:00; Fr-Sa 11:00-23:00",40.556465,-74.304909,https://www.openstreetmap.org/way/1249366076,higher,153,yes
node/6438927954,Roma Pizza,food_drink,restaurant: pizza,pizza,3.9,16,yes,casual team meal,,,,,,40.6542636,-74.3193478,https://www.openstreetmap.org/node/6438927954,medium,123,yes
node/6578804878,Rudy's,food_drink,restaurant: italian,italian,3.9,16,yes,team meal with a specific cuisine angle,,,,,,40.6524812,-74.3226672,https://www.openstreetmap.org/node/6578804878,medium,123,yes
node/4632362543,The Station,food_drink,bar,,3.9,16,yes,after-work drinks or informal team social,,,,,,40.6516473,-74.3247396,https://www.openstreetmap.org/node/4632362543,medium,120,yes
node/13740853101,Yu Noodles,food_drink,restaurant: chinese,chinese,3.9,16,yes,team meal with a specific cuisine angle,"319, North Avenue, 07027",,https://yunoodles.com/,+19085730455,Mo-Su 11:00-21:00,40.6530899,-74.324084,https://www.openstreetmap.org/node/13740853101,higher,153,yes
node/7111746324,Dragon Palace,food_drink,restaurant: chinese,chinese,4.0,16,yes,team meal with a specific cuisine angle,,,,,We-Mo 12:00-21:30,40.5726839,-74.3374225,https://www.openstreetmap.org/node/7111746324,medium,127,yes
way/1179635295,El Nacho’s Restaurant & Tequila Bar,food_drink,restaurant,,4.0,16,yes,after-work drinks or informal team social,,,,,,40.6489744,-74.2224783,https://www.openstreetmap.org/way/1179635295,medium,120,yes
node/10749755007,Jay's Chicken & Pizza,food_drink,"restaurant: chicken, fried_chicken, pizza",chicken;fried_chicken;pizza,4.0,16,yes,casual team meal,,,,,,40.6487895,-74.2239587,https://www.openstreetmap.org/node/10749755007,medium,123,yes
node/874822078,No1 CHINESE EXPRESS,food_drink,restaurant,,4.0,16,yes,team meal with a specific cuisine angle,,,,,,40.662365,-74.249618,https://www.openstreetmap.org/node/874822078,medium,120,yes
node/7111746325,Oakwood Pizza,food_drink,restaurant: pizza,pizza,4.0,16,yes,casual team meal,"1627, Wood Avenue, Edison, NJ, 08820",Edison,https://www.oakwoodpizza.com/oakwoodpizza,+1 732-494-0340,Mo-Sa 11:00-22:00; Su 12:00-22:00,40.5725047,-74.3371746,https://www.openstreetmap.org/node/7111746325,higher,153,yes
node/3838252749,& Grain,food_drink,cafe,sandwich;bakery;coffee_shop,4.1,16,yes,"low-key coffee, dessert, or small-group catch-up","700, North Avenue, Garwood, NJ, 07027",Garwood,,+1 908 232 2233,,40.6526785,-74.3307409,https://www.openstreetmap.org/node/3838252749,medium,131,yes
node/12949093500,Ming Restaurant,food_drink,restaurant: seafood,seafood,4.1,16,yes,team lunch or dinner,"1655-185, Oak Tree Road, Edison, NJ, 08817",Edison,https://www.mingrestaurants.com/best-seafood-restaurants-in-new-jersey/,+1-732-549-5051,"Tu-Su 12:00-15:00, Tu-Th, Su 17:00-21:30, Fr-Sa 17:00-22:30; Mo off",40.5714904,-74.3397349,https://www.openstreetmap.org/node/12949093500,higher,153,yes
node/7111746322,Mughal Express,food_drink,restaurant: indian,indian,4.1,16,yes,team meal with a specific cuisine angle,"1670, Oak Tree Road, Edison, NJ, 08820",Edison,https://www.moghulexpress.com/,+1 732-549-6222,"Mo-Th,Su 11:30-21:30; Fr-Sa 11:30-23:00",40.5733587,-74.3412357,https://www.openstreetmap.org/node/7111746322,higher,153,yes
node/7111746323,Papa Pancho Pizza,food_drink,"restaurant: pizza, indian",pizza;indian,4.1,16,yes,casual team meal,"1670, Oak Tree Road, Edison, NJ, 08820",Edison,https://www.papapanchopizza.com/,+1 732-902-2248,"Mo-Th,Su 11:30-21:30; Fr-Sa 11:30-22:00",40.5733573,-74.341386,https://www.openstreetmap.org/node/7111746323,higher,153,yes
node/6452670717,Rosie's Wine Bar,food_drink,bar,,4.1,16,yes,after-work drinks or informal team social,,,,,,40.6528403,-74.3300958,https://www.openstreetmap.org/node/6452670717,medium,120,yes
way/945650600,Bounty Coffee,food_drink,cafe,,4.2,16,yes,"low-key coffee, dessert, or small-group catch-up",,,,,,40.5715118,-74.2134196,https://www.openstreetmap.org/way/945650600,medium,120,yes
node/7668021003,Brisas Bakery & Restaurant,food_drink,"restaurant: latin_american, colombian, coffee_shop, bakery",latin_american;colombian;coffee_shop;bakery,4.2,16,yes,"low-key coffee, dessert, or small-group catch-up","985, South Elmora Avenue, Elizabeth, NJ, 07202",Elizabeth,https://brisasempanadas.com/,+1-908-662-2202,Mo-Su 07:00-20:00,40.6535183,-74.224848,https://www.openstreetmap.org/node/7668021003,higher,153,yes
way/761193299,Chili's,food_drink,restaurant: tex-mex,tex-mex,4.2,16,yes,team lunch or dinner,"1655, Oak Tree Road, Edison, NJ, 08820",Edison,https://www.chilis.com/locations/us/new-jersey/edison/edison/,+1 732-906-9112,"Mo-Th,Su 11:00-23:00; Fr-Sa 11:00-24:00",40.5720587,-74.3410778,https://www.openstreetmap.org/way/761193299,higher,153,yes
way/1179634729,El Leño Steakhouse Bar & Grill,food_drink,restaurant: steak_house,steak_house,4.2,16,yes,after-work drinks or informal team social,,,,,,40.6490688,-74.2185382,https://www.openstreetmap.org/way/1179634729,medium,123,yes
node/4203550193,La Famiglia Sorrento,food_drink,restaurant,,4.2,16,yes,team lunch or dinner,"631, Central Avenue, Westfield, NJ, 07090",Westfield,,,,40.6473619,-74.3388105,https://www.openstreetmap.org/node/4203550193,medium,124,yes
node/10747059718,Mid Night,food_drink,bar,,4.2,16,yes,after-work drinks or informal team social,"727, McKinley Street, Elizabeth, NJ",Elizabeth,,,,40.6437919,-74.2133518,https://www.openstreetmap.org/node/10747059718,medium,124,yes
way/1144233420,Tumi Peruvian Restaurant,food_drink,restaurant: peruvian,peruvian,4.2,16,yes,team lunch or dinner,"600, Bayway, Elizabeth, NJ, 07202",Elizabeth,https://www.tuminj.com/,+1-908-659-0006,Mo-Su 10:00-22:00,40.6455614,-74.2142421,https://www.openstreetmap.org/way/1144233420,higher,153,yes
node/11343990214,Chilean Bakery,food_drink,restaurant,,4.3,17,yes,"low-key coffee, dessert, or small-group catch-up",,,,,,40.6686208,-74.2583395,https://www.openstreetmap.org/node/11343990214,medium,119,yes
node/9710631885,Colombian Coffee Shop,food_drink,cafe,coffee_shop,4.3,17,yes,"low-key coffee, dessert, or small-group catch-up","505 1/2, Rahway Avenue",,colombiancshop.com,,,40.657384,-74.2278449,https://www.openstreetmap.org/node/9710631885,higher,144,yes
node/4953284822,Dakshin Express,food_drink,restaurant: indian,indian,4.3,17,yes,team meal with a specific cuisine angle,"1689, Oak Tree Road, Edison, NJ, 08820",Edison,https://dakshinexpress.com/,+1 732-494-6363,11:00-21:00,40.5722912,-74.3437312,https://www.openstreetmap.org/node/4953284822,higher,152,yes
node/11209075411,Gilda Nutrition,food_drink,restaurant,,4.3,17,yes,team lunch or dinner,"715, Summer Street, Elizabeth, NJ, 07202",Elizabeth,https://linktr.ee/gildanutritionnj,+1 908-344-6087,Mo-Fr 06:30-20:00; Sa 08:00-20:00; Su closed,40.650594,-74.2168924,https://www.openstreetmap.org/node/11209075411,higher,149,yes
node/5612758621,Noches de Colombia,food_drink,restaurant: caribbean,caribbean,4.3,17,yes,team lunch or dinner,"545, Bayway, 07202",,https://www.nochesdecolombiaelizabeth.com/,+1-908-353-7000,,40.6455008,-74.2129934,https://www.openstreetmap.org/node/5612758621,higher,148,yes
node/10698443435,Pastime Tavern,food_drink,bar,,4.3,17,yes,after-work drinks or informal team social,,,,,,40.6445591,-74.2119656,https://www.openstreetmap.org/node/10698443435,medium,119,yes
way/544640687,Peking Garden,food_drink,restaurant: chinese,chinese,4.3,17,yes,team meal with a specific cuisine angle,,,,,,40.6477902,-74.3409817,https://www.openstreetmap.org/way/544640687,medium,122,yes
node/12363158588,Pizzeria Montevideo,food_drink,restaurant: pizza,pizza,4.3,17,yes,casual team meal,"531, Bayway, Elizabeth, NJ, 07202",Elizabeth,,+1-908-355-2305,,40.6449039,-74.212532,https://www.openstreetmap.org/node/12363158588,medium,130,yes
way/1153496604,Santillo's Brick Oven Pizza,food_drink,restaurant: pizza,pizza,4.3,17,yes,casual team meal,"639, South Broad Street, Elizabeth, NJ",Elizabeth,,,,40.6489857,-74.2166213,https://www.openstreetmap.org/way/1153496604,medium,126,yes
way/1149479070,Tiki Mojito,food_drink,restaurant,,4.3,17,yes,team lunch or dinner,"525;529, Bayway, Elizabeth, NJ",Elizabeth,,,,40.6448386,-74.2122464,https://www.openstreetmap.org/way/1149479070,medium,123,yes
way/474469605,Bohemian Raspberry,food_drink,ice cream,,4.4,17,yes,"low-key coffee, dessert, or small-group catch-up",,,,,,40.6498932,-74.3400797,https://www.openstreetmap.org/way/474469605,medium,119,yes
node/13181750862,Jin Hua,food_drink,restaurant: chinese,chinese,4.4,17,yes,team meal with a specific cuisine angle,,,,,,40.6637805,-74.2352288,https://www.openstreetmap.org/node/13181750862,medium,122,yes
node/7821177573,Chuck E. Cheese,food_drink,restaurant: pizza,pizza,4.5,17,yes,casual team meal,,,https://locations.chuckecheese.com/us/ny/statenisland/1775-p-south-ave.,,,40.600075,-74.1930964,https://www.openstreetmap.org/node/7821177573,higher,140,yes
node/12556844918,Da Noi,food_drink,restaurant: italian,italian,4.5,17,yes,team meal with a specific cuisine angle,,,,,,40.5877253,-74.1969978,https://www.openstreetmap.org/node/12556844918,medium,122,yes
node/9809974395,FroYo,food_drink,ice cream,,4.5,17,yes,"low-key coffee, dessert, or small-group catch-up","270, North Avenue East, Westfield, NJ, 07090",Westfield,,,,40.6505886,-74.3431921,https://www.openstreetmap.org/node/9809974395,medium,123,yes
node/3277581695,Ilobasco Restaurant,food_drink,restaurant,,4.5,17,yes,team lunch or dinner,,,,,,40.655688,-74.2194073,https://www.openstreetmap.org/node/3277581695,medium,119,yes
node/9836543446,Jalapeño de Fuego,food_drink,restaurant: mexican,mexican,4.5,17,yes,casual team meal,"334, Murray Street, Elizabeth, NJ, 07202",Elizabeth,https://www.jalapenodefuego.com/,+1-908-441-7494,Tu-Sa 10:00-20:00; Su 10:00-18:00; Mo closed,40.6608766,-74.2264875,https://www.openstreetmap.org/node/9836543446,higher,152,yes
node/9809974391,Nagoya,food_drink,restaurant: japanese,japanese,4.5,17,yes,team meal with a specific cuisine angle,"278, North Avenue East, Westfield, NJ, 07090",Westfield,,,,40.6503685,-74.343139,https://www.openstreetmap.org/node/9809974391,medium,126,yes
way/1179635672,Portugal Express,food_drink,restaurant,,4.5,17,yes,team lunch or dinner,,,,,,40.6529965,-74.2156782,https://www.openstreetmap.org/way/1179635672,medium,119,yes
way/1179634445,Spicy Burro,food_drink,restaurant,,4.5,17,yes,team lunch or dinner,,,,,,40.6481684,-74.2110423,https://www.openstreetmap.org/way/1179634445,medium,119,yes
way/256763974,Westfield Diner,food_drink,restaurant,,4.5,17,yes,casual team meal,,,,,,40.651082,-74.3429675,https://www.openstreetmap.org/way/256763974,medium,119,yes
node/10212994187,El Pollo Restaurant II,food_drink,restaurant: spanish,spanish,4.6,17,yes,team lunch or dinner,,,,,,40.5907073,-74.1921011,https://www.openstreetmap.org/node/10212994187,medium,122,yes
node/3174502461,Mulberry House Restaurant,food_drink,restaurant: tea,tea,4.6,17,yes,team lunch or dinner,"415, Westfield Avenue, Westfield, 07090",Westfield,https://www.mulberryhouserestaurant.com/,+1-908-233-3562,,40.6480751,-74.3489091,https://www.openstreetmap.org/node/3174502461,higher,148,yes
node/5296171913,Xocolatz,food_drink,"restaurant: latin_american, comfort_food",latin_american;comfort_food,4.6,17,yes,casual team meal,,,,,,40.6510624,-74.3435281,https://www.openstreetmap.org/node/5296171913,medium,122,yes
node/1978387202,1950 Originals,food_drink,restaurant: american,american,4.7,17,yes,casual team meal,"13, Elm Street, Westfield, NJ, 07090",Westfield,https://1950originals.com/,+12012750622,,40.6505745,-74.3481791,https://www.openstreetmap.org/node/1978387202,higher,147,yes
node/1978400614,Brick Oven Pizza,food_drink,restaurant: italian,italian,4.7,17,yes,casual team meal,,,,,,40.6510175,-74.3474796,https://www.openstreetmap.org/node/1978400614,medium,121,yes
node/5372780805,Chez Catherine,food_drink,restaurant,,4.7,17,yes,team lunch or dinner,,,,,,40.6499008,-74.3490536,https://www.openstreetmap.org/node/5372780805,medium,118,yes
node/1978387196,Ferraro's,food_drink,restaurant: italian,italian,4.7,17,yes,team meal with a specific cuisine angle,,,,,,40.6504819,-74.3477107,https://www.openstreetmap.org/node/1978387196,medium,121,yes
node/1978387197,Isabella's American Grill,food_drink,restaurant,,4.7,17,yes,casual team meal,,,,,,40.6509585,-74.3482339,https://www.openstreetmap.org/node/1978387197,medium,118,yes
node/3527115339,Messy Tessy's Kitchen,food_drink,restaurant: sandwich,sandwich,4.7,17,yes,team lunch or dinner,"491, Boulevard",,,,,40.6756836,-74.2925848,https://www.openstreetmap.org/node/3527115339,medium,125,yes
node/11918641404,Ono Bowls,food_drink,restaurant,,4.7,17,yes,team lunch or dinner,"107, Quimby Street, Westfield, NJ, 07090",Westfield,https://www.onobowls.net,+1-908-588-2087,,40.6512593,-74.3472069,https://www.openstreetmap.org/node/11918641404,higher,144,yes
node/1978352935,Prospect Wine Bar & Bistro,food_drink,restaurant: italian,italian,4.7,17,yes,after-work drinks or informal team social,,,,,,40.6503618,-74.3486102,https://www.openstreetmap.org/node/1978352935,medium,121,yes
node/1978352936,Rockn' Joe,food_drink,cafe,,4.7,17,yes,"low-key coffee, dessert, or small-group catch-up",,,,,,40.6504429,-74.3487695,https://www.openstreetmap.org/node/1978352936,medium,118,yes
node/6727778608,Rooster Spin,food_drink,restaurant,,4.7,17,yes,team lunch or dinner,,,,,,40.6499503,-74.3471911,https://www.openstreetmap.org/node/6727778608,medium,118,yes
node/1978400612,Spice Bazaar,food_drink,restaurant: asian,asian,4.7,17,yes,"low-key coffee, dessert, or small-group catch-up","114, Quimby Street, Westfield, NJ",Westfield,https://www.spicebazaarnj.com/,,,40.6514746,-74.3475749,https://www.openstreetmap.org/node/1978400612,higher,143,yes
node/1978400620,Starbucks,food_drink,cafe,coffee_shop,4.7,17,yes,"low-key coffee, dessert, or small-group catch-up","117, Central Avenue, Westfield, NJ, 07090",Westfield,https://www.starbucks.com/store-locator/store/18392/westfield-117-central-avenue-westfield-nj-070902149-us,+1 908-789-8424,,40.6520074,-74.3469636,https://www.openstreetmap.org/node/1978400620,higher,147,yes
node/1978387214,Swirl Whirl,food_drink,ice cream,yogurt,4.7,17,yes,"low-key coffee, dessert, or small-group catch-up",,,,,,40.6507167,-74.3481994,https://www.openstreetmap.org/node/1978387214,medium,121,yes
way/1179636132,Tequila Bistro,food_drink,restaurant,,4.7,17,yes,team lunch or dinner,,,,,,40.6600792,-74.2188702,https://www.openstreetmap.org/way/1179636132,medium,118,yes
node/1978387217,Theresa's,food_drink,restaurant: italian,italian,4.7,17,yes,team meal with a specific cuisine angle,,,,,,40.6510931,-74.3482531,https://www.openstreetmap.org/node/1978387217,medium,121,yes
node/2911149600,Tinga,food_drink,restaurant: mexican,mexican,4.7,17,yes,casual team meal,,,,,,40.6519289,-74.3473808,https://www.openstreetmap.org/node/2911149600,medium,121,yes
node/1978400622,Turning Point,food_drink,restaurant,,4.7,17,yes,team lunch or dinner,"137, Central Avenue, Westfield, NJ, 07090",Westfield,https://turningpointrestaurants.com/location/westfield/,+1 908-264-8180,,40.6515219,-74.3465753,https://www.openstreetmap.org/node/1978400622,higher,144,yes
node/3174502462,Ahrre's Coffee Roastery,food_drink,restaurant: coffee,coffee,4.8,18,yes,"low-key coffee, dessert, or small-group catch-up","104, Elm Street, Westfield",Westfield,,,,40.6521576,-74.3486396,https://www.openstreetmap.org/node/3174502462,medium,125,yes
node/1978296995,Akai,food_drink,restaurant: sushi,sushi,4.8,18,yes,team meal with a specific cuisine angle,,,,,,40.6507962,-74.3490417,https://www.openstreetmap.org/node/1978296995,medium,121,yes
node/3527112960,Backyard Grill,food_drink,restaurant: portuguese,portuguese,4.8,18,yes,team lunch or dinner,"500, Boulevard, Kenilworth, NJ, 07033",Kenilworth,,,,40.676243,-74.2921916,https://www.openstreetmap.org/node/3527112960,medium,125,yes
node/3529383878,Capri Pizza,food_drink,restaurant: pizza,pizza,4.8,18,yes,casual team meal,"524, Boulevard, Kenilworth, NJ, 07033",Kenilworth,,,,40.6762904,-74.291179,https://www.openstreetmap.org/node/3529383878,medium,125,yes
node/1978292372,Cold Stone Creamery,food_drink,ice cream,ice_cream,4.8,18,yes,"low-key coffee, dessert, or small-group catch-up",,,,,,40.6515361,-74.3488032,https://www.openstreetmap.org/node/1978292372,medium,121,yes
node/1978296990,Cosimo's,food_drink,restaurant: italian,italian,4.8,18,yes,team meal with a specific cuisine angle,,,,,,40.6509923,-74.3488606,https://www.openstreetmap.org/node/1978296990,medium,121,yes
node/6452701205,Dim Sum II,food_drink,restaurant: asian,asian,4.8,18,yes,team lunch or dinner,,,,,,40.6506491,-74.3496478,https://www.openstreetmap.org/node/6452701205,medium,121,yes
node/11701476669,fresh&co,food_drink,restaurant,,4.8,18,yes,team lunch or dinner,"21, East Broad Street, 07090",,http://freshandco.com,+1 908-588-2988,Mo-Fr 07:00-21:00; Sa-Su 08:00-20:00,40.650575,-74.3497316,https://www.openstreetmap.org/node/11701476669,higher,148,yes
node/3527119029,Jimmy Buff's Italian Hot Dogs,food_drink,restaurant: hot_dog,hot_dog,4.8,18,yes,team meal with a specific cuisine angle,"506, Boulevard, Kenilworth, NJ, 07033",Kenilworth,,,,40.676275,-74.2919739,https://www.openstreetmap.org/node/3527119029,medium,125,yes
node/1978226018,Korean BBQ,food_drink,restaurant: asian,asian,4.8,18,yes,casual team meal,,,,,,40.6526629,-74.347185,https://www.openstreetmap.org/node/1978226018,medium,121,yes
node/3529380710,Le Rendez-Vous Bistro,food_drink,restaurant: french,french,4.8,18,yes,team lunch or dinner,"520, Boulevard",,,,,40.676266,-74.2913507,https://www.openstreetmap.org/node/3529380710,medium,125,yes
node/3529382968,Lenny and John's Subs,food_drink,restaurant: sandwich,sandwich,4.8,18,yes,team lunch or dinner,"522A, Boulevard, Kenilworth, NJ, 07033",Kenilworth,,,,40.6762741,-74.2912943,https://www.openstreetmap.org/node/3529382968,medium,125,yes
node/1978292385,Nathan's Ice Cream,food_drink,ice cream,,4.8,18,yes,"low-key coffee, dessert, or small-group catch-up",,,,,,40.6512435,-74.3486286,https://www.openstreetmap.org/node/1978292385,medium,118,yes
node/12363460216,Sakura Japan,food_drink,restaurant: japanese,japanese,4.8,18,yes,team meal with a specific cuisine angle,"25, South Broad Street, Elizabeth, NJ, 07202",Elizabeth,https://www.sakurajapanelizabethnj.com/,+1-908-354-0015,Mo-Su 11:00-21:00,40.6602754,-74.216327,https://www.openstreetmap.org/node/12363460216,higher,151,yes
node/3527104084,Star of India Restaurant,food_drink,restaurant: indian,indian,4.8,18,yes,team meal with a specific cuisine angle,"496, Kenilworth Boulevard, Kenilworth, NJ, 07033",Kenilworth,,,,40.6762939,-74.2924779,https://www.openstreetmap.org/node/3527104084,medium,125,yes
node/1978387212,Sweet Waters,food_drink,restaurant: steak_house,steak_house,4.8,18,yes,team lunch or dinner,,,,,,40.651213,-74.3482702,https://www.openstreetmap.org/node/1978387212,medium,121,yes
node/3527094334,Taormina Ristorante,food_drink,restaurant: italian,italian,4.8,18,yes,team meal with a specific cuisine angle,"482, Kenilworth Boulevard, Kenilworth, NJ, 07033",Kenilworth,,,,40.6761911,-74.293055,https://www.openstreetmap.org/node/3527094334,medium,125,yes
node/3527117121,Tum Thai,food_drink,restaurant: thai,thai,4.8,18,yes,team meal with a specific cuisine angle,"504, Boulevard, Kenilworth, NJ, 07033",Kenilworth,,,,40.6762615,-74.2920961,https://www.openstreetmap.org/node/3527117121,medium,125,yes
node/1978296993,Vicki's Diner,food_drink,restaurant,,4.8,18,yes,casual team meal,,,,,,40.6509039,-74.3489422,https://www.openstreetmap.org/node/1978296993,medium,118,yes
way/204592432,Villa Gennaro,food_drink,restaurant: italian,italian,4.8,18,yes,team meal with a specific cuisine angle,"75, Lincoln Highway, Edison, NJ, 08820",Edison,https://villagennaros.com/,+1-732-549-8554,Mo-Sa 11:00-21:45; Su 12:00-21:00,40.5580045,-74.341905,https://www.openstreetmap.org/way/204592432,higher,151,yes
node/12540015997,Big Nose Kate's Saloon,food_drink,bar,,4.9,18,yes,after-work drinks or informal team social,,,,,,40.5540353,-74.2176768,https://www.openstreetmap.org/node/12540015997,medium,118,yes
way/204592399,Margaritas Mexican Restaurant,food_drink,restaurant: mexican,mexican,4.9,18,yes,casual team meal,"53, US Route 1, Metuchen, NJ, 08840",Metuchen,https://margs.com/locations/margaritas-mexican-food-restaurant-nj/woodbridge/,+1 732-549-0444,Mo-Th 11:30-22:00; Fr 11:30-23:00; Sa 10:30-23:00; Su 10:30-22:00,40.5477636,-74.3273295,https://www.openstreetmap.org/way/204592399,higher,151,yes
way/204592465,Starbucks,food_drink,cafe,coffee_shop,4.9,18,yes,"low-key coffee, dessert, or small-group catch-up","49, Route 27, Edison, NJ, 08817",Edison,https://www.starbucks.com/store-locator/store/1025088/edison-rt-27-49-route-27-edison-nj-088173953-us,+1 732-549-1092,,40.5569733,-74.3432304,https://www.openstreetmap.org/way/204592465,higher,147,yes
way/187798475,The Original Pancake House,food_drink,restaurant,,4.9,18,yes,team lunch or dinner,"61, US Route 1, Metuchen, NJ, 08840",Metuchen,https://www.ophwoodbridge.com/,+1 732-710-3826,Mo-Th 08:00-15:00; Fr-Su 07:00-15:00,40.547979,-74.3267692,https://www.openstreetmap.org/way/187798475,higher,148,yes
way/1412353867,Anthony's Coal Fired Pizza,food_drink,"restaurant: pizza, wings",pizza;wings,5.0,18,yes,casual team meal,"80, Parsonage Road, Edison, NJ, 08837",Edison,https://acfp.com/locations/edison/,+1 732-744-1500,"Mo-Th,Su 11:00-22:00; Fr-Sa 11:00-23:00",40.5504168,-74.3340305,https://www.openstreetmap.org/way/1412353867,higher,151,yes
way/284281574,Benihana,food_drink,"restaurant: japanese, teppanyaki, steak",japanese;teppanyaki;steak,5.0,18,yes,team meal with a specific cuisine angle,"60, Parsonage Road, Edison, NJ, 08837",Edison,https://www.benihana.com/locations/edison-nj-ed/,+1 732-744-0660,"Mo-Th,Su 11:30-22:00; Fr-Sa 11:30-23:00",40.548899,-74.3334823,https://www.openstreetmap.org/way/284281574,higher,151,yes
node/10767181157,Bloomin' Bean,food_drink,cafe,coffee_shop,5.0,18,yes,"low-key coffee, dessert, or small-group catch-up",,,,,,40.5494366,-74.2211548,https://www.openstreetmap.org/node/10767181157,medium,121,yes
way/824255142,Kathiyawadi Kitchen II,food_drink,restaurant: indian,indian,5.0,18,yes,team meal with a specific cuisine angle,"1900, Oak Tree Road, Edison, NJ, 08820",Edison,,,,40.5731351,-74.3607777,https://www.openstreetmap.org/way/824255142,medium,125,yes
node/12177254199,Ocean Palace Restaurant & Bar,food_drink,restaurant: asian,asian,5.0,18,yes,after-work drinks or informal team social,"2286, Arthur Kill Road, 10309",,,,,40.5560665,-74.2121484,https://www.openstreetmap.org/node/12177254199,medium,125,yes
way/1451668424,Olga's Place,food_drink,restaurant: costa_rican,costa_rican,5.0,18,yes,team lunch or dinner,"214, Lieutenant Glenn Zamorski Drive, Elizabeth, NJ, 07206",Elizabeth,https://www.olgasplacenj.com/,+19083535881,,40.6490764,-74.1988999,https://www.openstreetmap.org/way/1451668424,higher,147,yes
node/5526642147,Rossville Pizza,food_drink,restaurant,,5.0,18,yes,casual team meal,"960, Bloomingdale Road",,,+1-718-227-4444,,40.549344,-74.2211195,https://www.openstreetmap.org/node/5526642147,medium,126,yes
node/11037776743,Brooklyn Boys Pizza & Deli,food_drink,restaurant: pizza,pizza,5.1,18,yes,casual team meal,"9, Lincoln Highway, Edison, NJ, 08820",Edison,https://bkboyspizza.com/,+1 732-902-6600,Mo-Th 10:00-21:30; Fr-Sa 10:00-22:00,40.5554254,-74.3446033,https://www.openstreetmap.org/node/11037776743,higher,150,yes
node/1987957482,Frappe Joe Coffee,food_drink,cafe,,5.1,18,yes,"low-key coffee, dessert, or small-group catch-up","1, Lincoln Hwy, Edison, NJ, 08820",Edison,http://frappe-joe.com/,+1-732-372-7700,Mo-Sa 07:00-19:00; Su 08:00-17:00,40.5551924,-74.3457601,https://www.openstreetmap.org/node/1987957482,higher,147,yes
way/227073634,IHOP,food_drink,"restaurant: breakfast, pancake",breakfast;pancake,5.1,18,yes,team lunch or dinner,"50, Parsonage Road, Edison, NJ, 08837",Edison,https://restaurants.ihop.com/en-us/nj/edison/breakfast-50-parsonage-rd-4601,+1 732-548-3020,Mo-Sa 07:00-22:00; Su 07:00-20:00,40.5483307,-74.3332243,https://www.openstreetmap.org/way/227073634,higher,150,yes
node/11037776736,LouCás,food_drink,restaurant: italian,italian,5.1,18,yes,team meal with a specific cuisine angle,"9, Lincoln Highway, Edison, NJ, 08820",Edison,https://www.loucasrestaurant.com/,+1-732-549-8580,"Mo off; Tu-Th 12:00-15:00,15:00-21:30; Fr 12:00-15:00,15:00-22:00; Sa 12:00-22:30; Su 12:00-21:00",40.5549294,-74.3450368,https://www.openstreetmap.org/node/11037776736,higher,150,yes
node/11037776740,Mee Mah,food_drink,restaurant: chinese,chinese,5.1,18,yes,team meal with a specific cuisine angle,"9, Lincoln Highway, Edison, NJ, 08820",Edison,https://www.meemahnj.com/,+1-732-906-2223,Mo off; Tu-Th 11:00-21:30; Fr-Sa 11:00-22:30; Su 12:00-21:30,40.5552827,-74.3447141,https://www.openstreetmap.org/node/11037776740,higher,150,yes
node/4456150910,Party Jam,food_drink,bar,,5.1,18,yes,after-work drinks or informal team social,"715, Sharrotts Road, Staten Island, NY, 10309",Staten Island,https://www.partyjamparties.com/,+1-718-966-8951,,40.539557,-74.2416138,https://www.openstreetmap.org/node/4456150910,higher,143,yes
node/8641747511,Scream 4 Cream,food_drink,ice cream,,5.1,18,yes,"low-key coffee, dessert, or small-group catch-up",,,,,,40.5488132,-74.3354652,https://www.openstreetmap.org/node/8641747511,medium,117,yes
node/2061559508,The Cheesecake Factory,food_drink,restaurant: american,american,5.1,18,yes,casual team meal,"455, Menlo Park Drive, Edison, 08837",Edison,https://locations.thecheesecakefactory.com/nj/edison-59.html,+1 732-494-7000,Mo-Th 11:00-22:00; Fr-Sa 11:00-23:00; Su 10:00-22:00,40.5492063,-74.3354815,https://www.openstreetmap.org/node/2061559508,higher,150,yes
node/8641762425,Athena Greek Cafe and Bakery,food_drink,cafe,greek,5.2,18,yes,"low-key coffee, dessert, or small-group catch-up",,,,,,40.5473651,-74.3357894,https://www.openstreetmap.org/node/8641762425,medium,120,yes
node/7668021002,Brisas Bakery & Restaurant,food_drink,"restaurant: latin_american, colombian, bakery, coffee_shop",latin_american;colombian;bakery;coffee_shop,5.2,18,yes,"low-key coffee, dessert, or small-group catch-up","262, Morris Avenue, Elizabeth, NJ, 07208",Elizabeth,https://brisasempanadas.com/,+1-908-353-1377,Mo-Su 06:00-20:00,40.6679523,-74.2166096,https://www.openstreetmap.org/node/7668021002,higher,150,yes
node/2494238091,Carvel,food_drink,ice cream,ice_cream,5.2,18,yes,"low-key coffee, dessert, or small-group catch-up","990, Rossville Avenue, 10309",,,,,40.5512648,-74.2124653,https://www.openstreetmap.org/node/2494238091,medium,124,yes
node/10699989882,Happy Fortune Chinese Restaurant,food_drink,restaurant: chinese,chinese,5.2,18,yes,team meal with a specific cuisine angle,"1022, Rossville Avenue, 10309",,,,,40.5516727,-74.2123748,https://www.openstreetmap.org/node/10699989882,medium,124,yes
node/12321022436,LEO'S PIZZERIA,food_drink,restaurant: pizza,pizza,5.2,18,yes,casual team meal,"136, Broad Street, Elizabeth, NJ",Elizabeth,,,,40.6664116,-74.2151928,https://www.openstreetmap.org/node/12321022436,medium,124,yes
way/1052167051,Martin's Restaurant,food_drink,restaurant: diner,diner,5.2,18,yes,casual team meal,"1135, East Jersey Street, Elizabeth, NJ, 07201",Elizabeth,,+1 908-353-2246,,40.6649032,-74.2125547,https://www.openstreetmap.org/way/1052167051,medium,128,yes
way/208576070,NOAH Osteria,food_drink,restaurant: italian,italian,5.2,18,yes,team meal with a specific cuisine angle,"14, Julian Place, Elizabeth, NJ, 07208",Elizabeth,https://www.noahosteria.com/,+1 908-353-0277,Tu-Th 17:00-02:00; Fr 17:00-03:00; Sa 12:00-03:00; Su 12:00-24:00,40.6671366,-74.2164259,https://www.openstreetmap.org/way/208576070,higher,150,yes
node/10699989884,Pino's Pizzeria & Restaurant,food_drink,restaurant: pizza,pizza,5.2,18,yes,casual team meal,"1026, Rossville Avenue, 10309",,,,,40.5517229,-74.2121269,https://www.openstreetmap.org/node/10699989884,medium,124,yes
way/1124359834,Sabor y Arte,food_drink,restaurant,,5.2,18,yes,team lunch or dinner,"940, Elizabeth Avenue, Elizabeth, NJ, 07201",Elizabeth,,,,40.6599865,-74.206677,https://www.openstreetmap.org/way/1124359834,medium,121,yes
way/707061664,Seasons 52,food_drink,restaurant: american,american,5.2,18,yes,casual team meal,"217, Lafayette Avenue, Edison, NJ, 08837",Edison,https://seasons52.com/locations/nj/edison/edison-menlo-park/4527,+1 732-632-1852,Mo-Th 11:30-22:00; Fr-Sa 11:30-23:00; Su 11:30-21:00,40.5458945,-74.3325664,https://www.openstreetmap.org/way/707061664,higher,150,yes
way/1124356789,Torna a Sorrento Restaurant,food_drink,restaurant,,5.2,18,yes,team lunch or dinner,"52, Westfield Avenue, Elizabeth, NJ, 07208",Elizabeth,,,,40.668183,-74.218454,https://www.openstreetmap.org/way/1124356789,medium,121,yes
node/10252473110,Above Rooftop Lounge & Bar,food_drink,bar,,5.3,19,yes,after-work drinks or informal team social,"1100, South Avenue, Staten Island, NY, 10314",Staten Island,,,,40.6151919,-74.1768593,https://www.openstreetmap.org/node/10252473110,medium,121,yes
way/1179636380,Del Porto,food_drink,restaurant,,5.3,19,yes,team lunch or dinner,"91, Elizabeth Avenue, Elizabeth, NJ, 07206",Elizabeth,https://delportonj.com/,+1 908-409-8423,11:30-22:00,40.6464163,-74.1905945,https://www.openstreetmap.org/way/1179636380,higher,147,yes
node/12548896516,Don Julio Chifa Men-Wha,food_drink,"restaurant: peruvian, chinese",peruvian;chinese,5.3,19,yes,team meal with a specific cuisine angle,"50, Marshall Street, Elizabeth, NJ",Elizabeth,,+1 908-820-0100,Mo-Th 11:00-20:00; Fr-Su 11:00-21:00,40.6455249,-74.1891615,https://www.openstreetmap.org/node/12548896516,higher,142,yes
node/7111763981,Edison Automat,food_drink,"restaurant: sandwich, burger, breakfast, indian, kebab, salad, coffee_shop",sandwich;burger;breakfast;indian;kebab;salad;coffee_shop,5.3,19,yes,"low-key coffee, dessert, or small-group catch-up",,,,,,40.5738359,-74.3670902,https://www.openstreetmap.org/node/7111763981,medium,120,yes
node/13720677870,Killmeyer's,food_drink,bar,german,5.3,19,yes,after-work drinks or informal team social,"4256, Arthur Kill Road, Staten Island, NY, 10309",Staten Island,https://killmeyers.com,+1 718-984-1202,Tu-Su 12:00-21:00; Fr-Sa 12:00-22:00; Mo off,40.5384251,-74.2371376,https://www.openstreetmap.org/node/13720677870,higher,150,yes
node/12456546131,Killmeyer's Old Bavaria Inn,food_drink,restaurant: german,german,5.3,19,yes,team lunch or dinner,"4254, Arthur Kill Road, Staten Island, NY, 10309",Staten Island,https://killmeyers.com/,+1 718-984-1202,"Mo off; Tu-Th 12:00-21:00; Fr,Sa 12:00-22:00; Su 12:00-21:00",40.5384997,-74.237165,https://www.openstreetmap.org/node/12456546131,higher,150,yes
node/10252473109,"Lorenzo's Restaurant, Bar & Cabaret",food_drink,restaurant: italian,italian,5.3,19,yes,after-work drinks or informal team social,"1100, South Avenue, Staten Island, NY, 10314",Staten Island,https://lorenzosdining.com,+1 718-477-2400,Mo-Th 06:00-21:00; Fr 06:00-22:00; Sa 08:00-22:00; Su 08:00-20:00,40.6149221,-74.1770833,https://www.openstreetmap.org/node/10252473109,higher,150,yes
node/10753321260,Mama Mia Pizzeria & Cucina,food_drink,restaurant: pizza,pizza,5.3,19,yes,casual team meal,,,,,,40.5507734,-74.2106828,https://www.openstreetmap.org/node/10753321260,medium,120,yes
node/9064116991,Miron Student Center Food Court,food_drink,food court,,5.3,19,yes,team lunch or dinner,,,,,Mo-Su 11:00-16:00,40.6772924,-74.2351083,https://www.openstreetmap.org/node/9064116991,medium,121,yes
node/8641762437,Starbucks,food_drink,cafe,coffee_shop,5.3,19,yes,"low-key coffee, dessert, or small-group catch-up","275, Menlo Park Mall, Edison, NJ, 08837",Edison,https://www.starbucks.com/store-locator/store/1005251/macys-menlo-park-mall-1st-flo-275-menlo-park-mall-edison-nj-088375402-us,+1 732-549-4400,,40.5459157,-74.3356495,https://www.openstreetmap.org/node/8641762437,higher,146,yes
node/9064137409,Starbucks,food_drink,cafe,coffee_shop,5.3,19,yes,"low-key coffee, dessert, or small-group catch-up","1000, Morris Avenue, Union, NJ, 07083",Union,https://www.starbucks.com/store-locator/store/19127/kean-university-thompson-libra-1000-morris-ave-union-nj-070837133-us,+1 908-737-4688,Mo-Su 08:00-16:00,40.6780173,-74.2339287,https://www.openstreetmap.org/node/9064137409,higher,150,yes
node/9064114898,The Cougar's Den,food_drink,food court,,5.3,19,yes,team lunch or dinner,,,,,Mo-Su 08:00-23:00,40.6775621,-74.2344265,https://www.openstreetmap.org/node/9064114898,medium,121,yes
way/1124358709,The Garden Restaurant and Lounge,food_drink,bar,,5.3,19,yes,after-work drinks or informal team social,"331, Morris Avenue, Elizabeth, NJ, 07208",Elizabeth,,,,40.6698617,-74.2183936,https://www.openstreetmap.org/way/1124358709,medium,121,yes
way/1124342535,Tropicana Diner and Bakery,food_drink,restaurant,,5.3,19,yes,"low-key coffee, dessert, or small-group catch-up","545, Morris Avenue, Elizabeth, NJ, 07208",Elizabeth,,,,40.6736879,-74.2235935,https://www.openstreetmap.org/way/1124342535,medium,121,yes
node/9939892552,Exit 13 Lounge,food_drink,bar,,5.4,19,yes,after-work drinks or informal team social,,,,,,40.5640942,-74.1918323,https://www.openstreetmap.org/node/9939892552,medium,117,yes
node/11040332639,Island Wok,food_drink,restaurant: chinese,chinese,5.4,19,yes,team meal with a specific cuisine angle,,,,+1-718-966-9888;+1-718-966-9801,,40.5596964,-74.1972021,https://www.openstreetmap.org/node/11040332639,medium,124,yes
node/8641787966,Menlo Pizza & Subs,food_drink,"restaurant: pizza, sandwich",pizza;sandwich,5.4,19,yes,casual team meal,,,,,,40.5436139,-74.3346086,https://www.openstreetmap.org/node/8641787966,medium,120,yes
way/1179638724,Minhoto Restaurant,food_drink,restaurant,,5.4,19,yes,team lunch or dinner,,,,,,40.6612243,-74.2020947,https://www.openstreetmap.org/way/1179638724,medium,117,yes
node/12079052814,Royal Pizza,food_drink,restaurant: pizza,pizza,5.4,19,yes,casual team meal,,,,+1-929-407-6666,,40.5597361,-74.1971568,https://www.openstreetmap.org/node/12079052814,medium,124,yes
node/11040332637,Unique Lounge,food_drink,bar,,5.4,19,yes,after-work drinks or informal team social,,,,,,40.559615,-74.1972952,https://www.openstreetmap.org/node/11040332637,medium,117,yes
node/9081177172,Unity Cafe,food_drink,cafe,breakfast;pastry;panini;salad;coffee;tea,5.4,19,yes,"low-key coffee, dessert, or small-group catch-up",,,https://www.uintycafenj.com/menus,+1 908-737-5326,Mo-Fr 07:00-20:30; Sa-Su 08:00-17:00,40.6792384,-74.2367215,https://www.openstreetmap.org/node/9081177172,higher,146,yes
way/1124358195,barCode,food_drink,bar,,5.5,19,yes,after-work drinks or informal team social,"429, North Broad Street, Elizabeth, NJ, 07208",Elizabeth,,,,40.6721173,-74.213656,https://www.openstreetmap.org/way/1124358195,medium,120,yes
node/9939892550,Chen's Garden,food_drink,restaurant: chinese,chinese,5.5,19,yes,team meal with a specific cuisine angle,,,,,,40.5635773,-74.1917623,https://www.openstreetmap.org/node/9939892550,medium,119,yes
node/9939892548,Greek Fellas,food_drink,restaurant: greek,greek,5.5,19,yes,team lunch or dinner,,,,,,40.5633039,-74.1917183,https://www.openstreetmap.org/node/9939892548,medium,119,yes
node/13743504901,Punta Cana Restaurant,food_drink,restaurant,,5.5,19,yes,team lunch or dinner,"414, North Broad Street, 07208",,https://puntacana.top/,+19085766058,Mo-Sa 08:00-20:00; Su 08:00-18:00,40.6717357,-74.2146464,https://www.openstreetmap.org/node/13743504901,higher,146,yes
node/3404266226,Rosevelt's Deli,food_drink,restaurant: sandwich,sandwich,5.5,19,yes,team lunch or dinner,"684, King Georges Post Road, Woodbridge Township, NJ, 08863",Woodbridge Township,https://www.rooseveltsdeli.com/,+1 732-738-9399,Mo-Fr 06:00-22:00; Sa 07:00-22:00; Su 08:00-15:00,40.5322754,-74.3075396,https://www.openstreetmap.org/node/3404266226,higher,149,yes
node/9064154525,STEM Kiosk,food_drink,cafe,,5.5,19,yes,"low-key coffee, dessert, or small-group catch-up",,,,,,40.679755,-74.2310045,https://www.openstreetmap.org/node/9064154525,medium,116,yes
node/13743394505,The Halal Zone,food_drink,restaurant: middle_eastern,middle_eastern,5.5,19,yes,team lunch or dinner,"400, North Broad Street, 07208",,https://thehalalzone.org,+1-908-355-6229,Su 14:00-23:00; Mo-Sa 11:00-02:00,40.6713457,-74.2149792,https://www.openstreetmap.org/node/13743394505,higher,149,yes
way/161269061,Ursino Steakhouse and Tavern,food_drink,restaurant: steak_house,steak_house,5.5,19,yes,team lunch or dinner,"1075, Morris Avenue, Union, NJ, 07083",Union,http://www.ursinosteakhouse.com/,+1 908-977-9699,,40.6801397,-74.2307316,https://www.openstreetmap.org/way/161269061,higher,145,yes
way/712703023,Blackthorne,food_drink,pub,,5.6,19,yes,after-work drinks or informal team social,,,,,,40.6888995,-74.2939587,https://www.openstreetmap.org/way/712703023,medium,116,yes
way/256657095,Chrone's Tavern,food_drink,bar,,5.6,19,yes,after-work drinks or informal team social,,,,,,40.6680995,-74.3501123,https://www.openstreetmap.org/way/256657095,medium,116,yes
node/9190680365,Cold Stone Creamery,food_drink,ice cream,ice_cream,5.6,19,yes,"low-key coffee, dessert, or small-group catch-up","1101, Morris Avenue, 07083",,,,Su-Th 10:30-22:00; Fr-Sa 10:30-22:00,40.6825133,-74.2342011,https://www.openstreetmap.org/node/9190680365,medium,127,yes
node/9064150018,Cougar Cafe,food_drink,cafe,,5.6,19,yes,"low-key coffee, dessert, or small-group catch-up",,,,,Mo 10:00-16:00; Tu-We 07:30-20:00; Th 08:00-19:00; Fr 08:30-17:00; Sa 09:00-14:00,40.6827776,-74.236487,https://www.openstreetmap.org/node/9064150018,medium,120,yes
node/8418876780,Flores Brunch,food_drink,restaurant: brunch,brunch,5.6,19,yes,team lunch or dinner,"4553, Arthur Kill Road, Staten Island, NY, 10309",Staten Island,https://floresbrunchny.com/,+1 718-605-9866,Mo-Th 08:00-22:00; Fr-Su 08:00-23:00,40.532075,-74.2393419,https://www.openstreetmap.org/node/8418876780,higher,149,yes
node/3404238165,Goodfellows,food_drink,restaurant: pizza,pizza,5.6,19,yes,casual team meal,"736, King Georges Post Road, Fords, NJ, 08863",Fords,https://www.goodfellowstakeout.com/,+1 732-738-7500,10:00-22:00,40.5311562,-74.3095003,https://www.openstreetmap.org/node/3404238165,higher,149,yes
way/1190028585,IHOP,food_drink,"restaurant: breakfast, pancake",breakfast;pancake,5.6,19,yes,team lunch or dinner,"465, North Broad Street, Elizabeth, NJ, 07028",Elizabeth,,,,40.6734075,-74.2129694,https://www.openstreetmap.org/way/1190028585,medium,123,yes
node/2681006489,Publick House,food_drink,bar,,5.6,19,yes,after-work drinks or informal team social,,,,,,40.66746,-74.3505845,https://www.openstreetmap.org/node/2681006489,medium,116,yes
node/9054865556,Starbucks,food_drink,cafe,coffee_shop,5.6,19,yes,"low-key coffee, dessert, or small-group catch-up","1011, Morris Avenue, Union, NJ, 07083",Union,https://www.starbucks.com/store-locator/store/1026901/vermella-union-morris-ave-1011-g-morris-ave-suite-a-union-nj-070837120-us,+1 732-404-7805,Mo-Fr 05:00-21:00; Sa-Su 06:00-22:00,40.6827402,-74.2338914,https://www.openstreetmap.org/node/9054865556,higher,149,yes
way/517030426,Applebee's,food_drink,restaurant: american,american,5.7,19,yes,casual team meal,,,,,,40.688421,-74.3030253,https://www.openstreetmap.org/way/517030426,medium,119,yes
node/13743505501,Bubbakoo's Burritos,food_drink,restaurant: mexican,mexican,5.7,19,yes,casual team meal,"505, STE 102, North Broad Street, 07208",,https://bubbakoos.com/locations/nj/505-n-broad-street-suite-102,+19088454100,Mo-Su 08:00-23:00,40.6739376,-74.2129806,https://www.openstreetmap.org/node/13743505501,higher,149,yes
node/13743561801,Bull Horns Burger + Grill,food_drink,"restaurant: burger, grill",burger;grill,5.7,19,yes,casual team meal,"505, STE 106, North Broad Street, 07208",,https://www.bullhorns.com/,+19086173358,Mo-Su 11:00-03:00,40.6738613,-74.2124861,https://www.openstreetmap.org/node/13743561801,higher,149,yes
node/4941403221,Don Alex,food_drink,restaurant,,5.7,19,yes,team lunch or dinner,,,,,,40.6896711,-74.2937573,https://www.openstreetmap.org/node/4941403221,medium,116,yes
node/13743561701,Jersey Mike's Subs,food_drink,restaurant: sandwich,sandwich,5.7,19,yes,team lunch or dinner,"505, North Broad Street, 07208",,http://www.jerseymikes.com/1077/elizabeth-nj,+17325159881,Mo-Su 10:00-21:00,40.6738942,-74.212714,https://www.openstreetmap.org/node/13743561701,higher,149,yes
node/9064135429,North Side Cafe,food_drink,cafe,,5.7,19,yes,"low-key coffee, dessert, or small-group catch-up",,,,,,40.6801456,-74.223784,https://www.openstreetmap.org/node/9064135429,medium,116,yes
node/13743561702,Playa Bowls,food_drink,restaurant,,5.7,19,yes,team lunch or dinner,"505, North Broad Street, 07208",,https://playabowls.com/location/elizabeth,+19088609001,Su-We 08:00-22:00; Th-Sa 08:00-00:00,40.6738783,-74.2125943,https://www.openstreetmap.org/node/13743561702,higher,146,yes
node/13743561602,Teriyaki Madness,food_drink,restaurant,,5.7,19,yes,team lunch or dinner,"505, North Broad Street, 07208",,,,,40.6738528,-74.2124065,https://www.openstreetmap.org/node/13743561602,medium,120,yes
node/8398847517,Union Plaza Diner,food_drink,restaurant,,5.7,19,yes,casual team meal,"Route 22, 07083",,http://unionplazadiner.com,,,40.6897521,-74.2988401,https://www.openstreetmap.org/node/8398847517,medium,128,yes
way/469615122,901 Club,food_drink,bar,,5.8,20,yes,after-work drinks or informal team social,,,,,,40.6683036,-74.2001451,https://www.openstreetmap.org/way/469615122,medium,116,yes
node/10309850407,Ambrosino's Pizzeria,food_drink,restaurant: pizza,pizza,5.8,20,yes,casual team meal,,,,,,40.5536262,-74.193048,https://www.openstreetmap.org/node/10309850407,medium,119,yes
node/10309850406,Carvel,food_drink,ice cream,ice_cream,5.8,20,yes,"low-key coffee, dessert, or small-group catch-up",,,,,,40.5535736,-74.1931395,https://www.openstreetmap.org/node/10309850406,medium,119,yes
node/11040332654,Casa Nino's Pizza Bar,food_drink,restaurant: pizza,pizza,5.8,20,yes,after-work drinks or informal team social,"1281, Arthur Kill Road, Staten Island, NY, 10312",Staten Island,https://casaninosi.com/,+1 718-948-0440,10:30-22:00,40.5657975,-74.1829086,https://www.openstreetmap.org/node/11040332654,higher,149,yes
node/2892675060,China Express,food_drink,restaurant,,5.8,20,yes,team lunch or dinner,,,,,,40.6887294,-74.3071045,https://www.openstreetmap.org/node/2892675060,medium,116,yes
node/7797500151,EatItalian,food_drink,restaurant: italian,italian,5.8,20,yes,team meal with a specific cuisine angle,,,,,,40.5428868,-74.2072207,https://www.openstreetmap.org/node/7797500151,medium,119,yes
node/10309915710,Genki Sushi,food_drink,restaurant: sushi,sushi,5.8,20,yes,team meal with a specific cuisine angle,"262S, Arden Avenue, 10312",,https://genkistatenisland.com/,+1-718-227-7375,,40.5527575,-74.1933491,https://www.openstreetmap.org/node/10309915710,higher,145,yes
way/285603138,IHOP,food_drink,"restaurant: breakfast, pancake",breakfast;pancake,5.8,20,yes,team lunch or dinner,,,,,,40.6891279,-74.3046396,https://www.openstreetmap.org/way/285603138,medium,119,yes
node/1708725500,Islander Taste Chinese Restaurant,food_drink,restaurant: chinese,chinese,5.8,20,yes,team meal with a specific cuisine angle,,,,,,40.5427805,-74.2076903,https://www.openstreetmap.org/node/1708725500,medium,119,yes
node/6700910540,KPOT,food_drink,restaurant,,5.8,20,yes,team lunch or dinner,,,,,,40.6905904,-74.2983155,https://www.openstreetmap.org/node/6700910540,medium,116,yes
node/7797500145,Misaki Sushi,food_drink,restaurant: sushi,sushi,5.8,20,yes,team meal with a specific cuisine angle,,,,,,40.542821,-74.2075572,https://www.openstreetmap.org/node/7797500145,medium,119,yes
node/1708727865,Pio Hot Bagels,food_drink,"restaurant: coffee_shop, breakfast, lunch, bagel",coffee_shop;breakfast;lunch;bagel,5.8,20,yes,"low-key coffee, dessert, or small-group catch-up",,,,,,40.5429054,-74.2067533,https://www.openstreetmap.org/node/1708727865,medium,119,yes
way/285603401,Red Lobster,food_drink,restaurant: seafood,seafood,5.8,20,yes,team lunch or dinner,,,,,,40.6894118,-74.3020631,https://www.openstreetmap.org/way/285603401,medium,119,yes
way/285601323,Saporito,food_drink,restaurant: pizza,pizza,5.8,20,yes,casual team meal,,,,,,40.6873876,-74.3152302,https://www.openstreetmap.org/way/285601323,medium,119,yes
node/2892675059,Starbucks,food_drink,cafe,coffee_shop,5.8,20,yes,"low-key coffee, dessert, or small-group catch-up","2698, Route 22 East, Union, NJ, 07083",Union,https://www.starbucks.com/store-locator/store/13523/rt-22-center-island-2698-route-22-east-union-nj-070838574-us,+1 908-687-7299,,40.6887742,-74.307252,https://www.openstreetmap.org/node/2892675059,higher,145,yes
node/1708724065,Sunset Pizza Restaurant,food_drink,restaurant: pizza,pizza,5.8,20,yes,casual team meal,"645, Rossville Avenue, Staten Island, NY, 10309",Staten Island,https://www.sunsetpizza.net/,+1 718-356-5918,11:00-21:45,40.5427501,-74.2077902,https://www.openstreetmap.org/node/1708724065,higher,149,yes
way/106706061,TGI Friday's,food_drink,restaurant: american,american,5.8,20,yes,casual team meal,,,,,,40.6876114,-74.3145054,https://www.openstreetmap.org/way/106706061,medium,119,yes
node/9939526744,Tim Hortons,food_drink,cafe,coffee_shop,5.8,20,yes,"low-key coffee, dessert, or small-group catch-up","700, South Avenue, Staten Island, NY, 10303",Staten Island,,+1 718-982-9203,Mo-We 06:00-22:00; Fr-Su 06:00-22:00,40.6221092,-74.1685284,https://www.openstreetmap.org/node/9939526744,higher,141,yes
node/12184721858,Umi Hotpot Sushi & Seafood Buffet,food_drink,"restaurant: buffet, sushi, seafood",buffet;sushi;seafood,5.8,20,yes,team meal with a specific cuisine angle,,,,,,40.6224408,-74.1694472,https://www.openstreetmap.org/node/12184721858,medium,119,yes
node/2545431426,Buddy's Cafe Play Place,food_drink,cafe,bubble_tea,5.9,20,yes,"low-key coffee, dessert, or small-group catch-up","262F, Arden Avenue, 10312",,https://www.buddyscafeandplayplace1.com/,+1-347-562-4842,Mo-Su 10:00-21:00,40.5530397,-74.1927658,https://www.openstreetmap.org/node/2545431426,higher,148,yes
way/285601624,Cathay 22,food_drink,restaurant: chinese,chinese,5.9,20,yes,team meal with a specific cuisine angle,,,,,,40.6876932,-74.3172446,https://www.openstreetmap.org/way/285601624,medium,118,yes
node/1708713022,Goodfella's Pizzeria,food_drink,restaurant: pizza,pizza,5.9,20,yes,casual team meal,,,http://goodfellasrossville.com/,,,40.5425935,-74.206185,https://www.openstreetmap.org/node/1708713022,higher,136,yes
node/8413455505,Lobster House Joe's,food_drink,restaurant: seafood,seafood,5.9,20,yes,team lunch or dinner,,,,,,40.5280311,-74.2400831,https://www.openstreetmap.org/node/8413455505,medium,118,yes
node/7821236141,Millie's of Staten Island,food_drink,restaurant: pizza,pizza,5.9,20,yes,casual team meal,"185, Bricktown Way, Staten Island, NY, 10309",Staten Island,https://www.milliesoldworld.com/location/millies-staten-island/,+1 929-284-4004,"Mo-Th 11:30-21:00; Fr,Sa 11:30-22:00; Su 12:00-21:00",40.5308324,-74.2309451,https://www.openstreetmap.org/node/7821236141,higher,148,yes
node/2545431422,Peking Taste,food_drink,restaurant: chinese,chinese,5.9,20,yes,team meal with a specific cuisine angle,"262B, Arden Avenue, 10312",,,,,40.5531773,-74.1925195,https://www.openstreetmap.org/node/2545431422,medium,122,yes
node/4407735236,Starbucks,food_drink,cafe,coffee_shop,5.9,20,yes,"low-key coffee, dessert, or small-group catch-up","2505, Richmond Avenue, Staten Island, NY, 10314",Staten Island,https://www.starbucks.com/store-locator/store/12090/2505-richmond-avenue-2505-richmond-avenue-staten-island-ny-103145881-us,+1 718-494-4451,,40.5865941,-74.1678707,https://www.openstreetmap.org/node/4407735236,higher,144,yes
node/5530476452,Starbucks,food_drink,cafe,coffee_shop,5.9,20,yes,"low-key coffee, dessert, or small-group catch-up","1243, Woodrow Road, Staten Island, NY, 10309",Staten Island,https://www.starbucks.com/store-locator/store/1015914/woodrow-shopping-plaza-1243-woodrow-rd-306-staten-island-ny-103091725-us,+1 929-321-0457,,40.542095,-74.2069354,https://www.openstreetmap.org/node/5530476452,higher,144,yes
node/11887022695,Teriyaki One,food_drink,restaurant: japanese,japanese,5.9,20,yes,team meal with a specific cuisine angle,,,,,,40.628805,-74.1678857,https://www.openstreetmap.org/node/11887022695,medium,118,yes
node/1708709547,Woodrow Diner,food_drink,restaurant: american,american,5.9,20,yes,casual team meal,"655, Rossville Avenue, Staten Island, NY, 10309",Staten Island,https://www.woodrowdinersi.com/,+1 718-984-7373,"Mo-Th 07:00-22:00; Fr,Sa 07:00-23:00; Su 07:00-21:00",40.5428962,-74.2066515,https://www.openstreetmap.org/node/1708709547,higher,148,yes
node/3096488023,Applebee's,food_drink,restaurant: american,american,6.0,20,yes,casual team meal,"1721, Morris Avenue, Union, NJ, 07083",Union,https://restaurants.applebees.com/en-us/nj/union/1721-morris-ave.-98051,+1 908-964-1070,"Mo-Th,Su 11:00-24:00, Fr-Sa 11:00-01:00",40.6940914,-74.2579637,https://www.openstreetmap.org/node/3096488023,higher,148,yes
node/7821236138,Applebee's,food_drink,restaurant: american,american,6.0,20,yes,casual team meal,"2722, Veterans Road West, Staten Island, NY, 10309",Staten Island,https://restaurants.applebees.com/en-us/ny/staten-island/2720-veterans-road-west-75015,+1 718-943-1200,"Su-Th 09:00-23:00; Fr,Sa 09:00-24:00",40.5300818,-74.2291373,https://www.openstreetmap.org/node/7821236138,higher,148,yes
node/6460884786,Arirang,food_drink,"restaurant: asian, hibachi",asian;hibachi,6.0,20,yes,team lunch or dinner,,,,,,40.6769679,-74.3474736,https://www.openstreetmap.org/node/6460884786,medium,118,yes
node/9526028869,Avanti's Pizzeria,food_drink,restaurant: pizza,pizza,6.0,20,yes,casual team meal,"1650, Richmond Avenue, Staten Island, NY, 10314",Staten Island,https://avantispizza.com/,+1 718-568-3000,11:00-22:00,40.6081681,-74.1629696,https://www.openstreetmap.org/node/9526028869,higher,148,yes
node/12604550736,Ayala Coffee,food_drink,cafe,,6.0,20,yes,"low-key coffee, dessert, or small-group catch-up","946, Stuyvesant Avenue",,,,,40.6953027,-74.2717862,https://www.openstreetmap.org/node/12604550736,medium,119,yes
node/9526028885,Baskin-Robbins,food_drink,ice cream,ice_cream,6.0,20,yes,"low-key coffee, dessert, or small-group catch-up","1650, Richmond Avenue, Staten Island, NY, 10314",Staten Island,https://locations.baskinrobbins.com/ny/staten-island/1650-richmond-ave-352786-br,,24/7,40.6082008,-74.1628586,https://www.openstreetmap.org/node/9526028885,higher,144,yes
way/761192834,Chef's Table,food_drink,restaurant: indian,indian,6.0,20,yes,team meal with a specific cuisine angle,,,,,,40.577177,-74.3834775,https://www.openstreetmap.org/way/761192834,medium,118,yes
node/11997816169,Cioffi’s Restaurant-Bar-Pizzeria,food_drink,restaurant: italian_pizza,italian_pizza,6.0,20,yes,after-work drinks or informal team social,"979, Stuyvesant Avenue, 07083",,https://www.cioffisfood.com/,+1 908-964-3300,Mo-Fr 11:00-21:00; Sa-Su 11:00-22:00,40.6947348,-74.2720776,https://www.openstreetmap.org/node/11997816169,higher,148,yes
node/8262422500,Cold Stone Creamery,food_drink,ice cream,ice_cream,6.0,20,yes,"low-key coffee, dessert, or small-group catch-up","2341, Richmond Avenue, Staten Island, NY, 10314",Staten Island,https://www.coldstonecreamery.com/stores/20808,+1 718-983-5700,"Mo-Th,Su 12:00-22:00; Fr,Sa 12:00-22:30",40.5908446,-74.1646201,https://www.openstreetmap.org/node/8262422500,higher,148,yes
node/8089372379,Echo Tap & Grille,food_drink,restaurant: american,american,6.0,20,yes,casual team meal,"1079, Route 22 East, Mountainside, NJ, 07092",Mountainside,https://www.echotapandgrille.com/,+1-908-264-7100,Mo-Su 11:00-22:00,40.682221,-74.3389384,https://www.openstreetmap.org/node/8089372379,higher,148,yes
node/5481166202,Fanwood Bagel,food_drink,restaurant,,6.0,20,yes,team lunch or dinner,,,,,,40.6403949,-74.3835882,https://www.openstreetmap.org/node/5481166202,medium,115,yes
node/8263092679,Island Kitchen Chinese Restaurant,food_drink,restaurant: chinese,chinese,6.0,20,yes,team meal with a specific cuisine angle,,,,,,40.5901243,-74.1652328,https://www.openstreetmap.org/node/8263092679,medium,118,yes
node/11386507679,Oriental Plaza,food_drink,restaurant: asian,asian,6.0,20,yes,team lunch or dinner,,,,,,40.60312,-74.1625697,https://www.openstreetmap.org/node/11386507679,medium,118,yes
node/5887694698,Paddy's Place,food_drink,bar,,6.0,20,yes,after-work drinks or informal team social,,,,,,40.6953539,-74.2705831,https://www.openstreetmap.org/node/5887694698,medium,115,yes
node/8262422501,Peking Taste,food_drink,restaurant: chinese,chinese,6.0,20,yes,team meal with a specific cuisine angle,,,,,,40.5907938,-74.1646909,https://www.openstreetmap.org/node/8262422501,medium,118,yes
node/9526028879,Red Ginger,food_drink,restaurant: chinese,chinese,6.0,20,yes,team meal with a specific cuisine angle,,,,,,40.6082808,-74.1636288,https://www.openstreetmap.org/node/9526028879,medium,118,yes
node/9526028877,Saporo Sushi,food_drink,restaurant: sushi,sushi,6.0,20,yes,team meal with a specific cuisine angle,"1650, Richmond Avenue, Staten Island, NY, 10314",Staten Island,https://sapporosushi.net/,+1 718-983-3781,"Mo-Fr 11:00-21:15; Sa,Su 11:30-21:15",40.6082627,-74.163518,https://www.openstreetmap.org/node/9526028877,higher,148,yes
way/1179638115,Terminal One Sports Bar,food_drink,bar,,6.0,20,yes,after-work drinks or informal team social,,,,,,40.6726655,-74.2010466,https://www.openstreetmap.org/way/1179638115,medium,115,yes
node/9247328221,Tim Hortons,food_drink,cafe,coffee_shop,6.0,20,yes,"low-key coffee, dessert, or small-group catch-up","1700, Richmond Avenue, Staten Island, NY, 10314-3932",Staten Island,,+1 718-370-2555,Mo-We 05:00-22:00; Fr-Su 05:00-22:00,40.6068917,-74.1627912,https://www.openstreetmap.org/node/9247328221,higher,140,yes
node/12853414204,Awake Cafe & Bakery,food_drink,cafe,,6.1,20,yes,"low-key coffee, dessert, or small-group catch-up",,,,,,40.5816035,-74.1660634,https://www.openstreetmap.org/node/12853414204,medium,115,yes
way/1255854135,Ayala Coffee,food_drink,cafe,,6.1,20,yes,"low-key coffee, dessert, or small-group catch-up","1917, Morris Avenue",,,,,40.6957726,-74.266015,https://www.openstreetmap.org/way/1255854135,medium,119,yes
node/8263092686,Bario's Pizzeria,food_drink,restaurant: pizza,pizza,6.1,20,yes,after-work drinks or informal team social,"446, Nome Avenue, Staten Island, NY",Staten Island,https://www.bariosonline.com/,+1 718-370-0100,11:00-22:00,40.5897254,-74.1646715,https://www.openstreetmap.org/node/8263092686,higher,148,yes
node/8265230598,Baskin-Robbins,food_drink,ice cream,ice_cream,6.1,20,yes,"low-key coffee, dessert, or small-group catch-up","77, Richmond Hill Road, Staten Island, NY, 10314",Staten Island,https://locations.baskinrobbins.com/ny/staten-island/77-a-richmond-hill-rd-342725-br,+1 718-370-1238,Mo-Sa 05:00-22:00; Su 06:00-22:00,40.587986,-74.1653282,https://www.openstreetmap.org/node/8265230598,higher,148,yes
way/469618759,Ben's Bar,food_drink,bar,,6.1,20,yes,after-work drinks or informal team social,,,,,,40.6741747,-74.2012356,https://www.openstreetmap.org/way/469618759,medium,115,yes
way/1179634403,Bossa Fish,food_drink,restaurant,,6.1,20,yes,team lunch or dinner,,,,,,40.6560376,-74.1808624,https://www.openstreetmap.org/way/1179634403,medium,115,yes
way/1190617593,Casa Manila,food_drink,restaurant: filipino,filipino,6.1,20,yes,team lunch or dinner,"1921, Morris Avenue",,,,,40.6957864,-74.2661714,https://www.openstreetmap.org/way/1190617593,medium,122,yes
way/904169966,Dave & Buster's,food_drink,restaurant: american,american,6.1,20,yes,casual team meal,"2655, Richmond Avenue, Staten Island, NY",Staten Island,https://www.daveandbusters.com/us/en/about/locations/staten-island,+1 929-464-2700,"Mo-Th 11:00-24:00, Fr 11:00-01:00, Sa 10:00-01:00, Su 10:00-24:00",40.5825352,-74.1670453,https://www.openstreetmap.org/way/904169966,higher,148,yes
node/7811227317,Dolce Fantasia,food_drink,restaurant: italian,italian,6.1,20,yes,team meal with a specific cuisine angle,"2935, Veterans Road West, Staten Island, NY, 10309",Staten Island,https://www.dolcefantasia.us/,+1 718-290-9936,,40.5269243,-74.2314671,https://www.openstreetmap.org/node/7811227317,higher,144,yes
node/13034344261,Dynasty Taste,food_drink,restaurant: chinese,chinese,6.1,20,yes,team meal with a specific cuisine angle,,,,,,40.58809,-74.165227,https://www.openstreetmap.org/node/13034344261,medium,118,yes
node/10759831084,El Sabor a mi Peru,food_drink,restaurant: peruvian,peruvian,6.1,20,yes,team lunch or dinner,"2220, Forest Avenue, Staten Island, NY, 10303",Staten Island,https://elsaboramiperu.com/,+1 347-825-2801,10:00-20:00,40.6262605,-74.163605,https://www.openstreetmap.org/node/10759831084,higher,148,yes
node/6460884384,Famous Dave's,food_drink,restaurant: barbecue,barbecue,6.1,20,yes,after-work drinks or informal team social,,,,,,40.6703768,-74.3594524,https://www.openstreetmap.org/node/6460884384,medium,118,yes
node/11598565393,Farington's Cafe & Restaurant,food_drink,restaurant,,6.1,20,yes,"low-key coffee, dessert, or small-group catch-up","1949, Richmond Avenue, Staten Island, NY, 10314",Staten Island,https://www.faringtonscafesi.com/,+1 917-830-0059,"Mo,We-Sa 11:00-22:00; Tu off; Su 10:00-21:00",40.6005189,-74.1623237,https://www.openstreetmap.org/node/11598565393,higher,145,yes
node/6711404685,Gong Cha,food_drink,cafe,bubble_tea,6.1,20,yes,"low-key coffee, dessert, or small-group catch-up",,,,,,40.5818133,-74.1659995,https://www.openstreetmap.org/node/6711404685,medium,118,yes
node/8263092688,Holy Schnitzel,food_drink,restaurant,,6.1,20,yes,team lunch or dinner,"438, Nome Avenue, Staten Island, NY, 10314",Staten Island,https://holyschnitzel.com/holy-finder/holy-schnitzel-staten-island/,+1 718-761-4659,"Mo-Th,Su 10:00-23:00, Fr 10:00-17:00, Sa 07:30-25:30",40.5896716,-74.1644648,https://www.openstreetmap.org/node/8263092688,higher,145,yes
node/10759831080,J and B Restaurant,food_drink,restaurant: pizza,pizza,6.1,20,yes,casual team meal,"2220, Forest Avenue, Staten Island, NY, 10303",Staten Island,https://jbpizza.com/,+1 718-876-5700,"Mo-Th 11:00-21:45; Fr,Sa 11:00-22:30; Su 11:30-21:45",40.6262204,-74.1632549,https://www.openstreetmap.org/node/10759831080,higher,148,yes
node/7811227322,Luce,food_drink,restaurant: italian,italian,6.1,20,yes,team meal with a specific cuisine angle,,,,,,40.5272504,-74.2319172,https://www.openstreetmap.org/node/7811227322,medium,118,yes
way/1444378886,Metuchen Inn,food_drink,restaurant,,6.1,20,yes,team lunch or dinner,"424, Middlesex Avenue, Metuchen, NJ, 08848",Metuchen,https://metucheninn.com/,+1 732-494-6444,Mo-Fr 12:00-21:00; Sa 16:00-21:00; Su 12:00-19:00,40.545627,-74.3601693,https://www.openstreetmap.org/way/1444378886,higher,145,yes
node/9247328222,Mike's Unicorn Diner,food_drink,restaurant,,6.1,20,yes,casual team meal,"2944, Victory Boulevard",,,,,40.6071197,-74.1606826,https://www.openstreetmap.org/node/9247328222,medium,119,yes
node/8253381588,Miller's Ale House,food_drink,restaurant: american,american,6.1,20,yes,casual team meal,"2883, Richmond Avenue, Staten Island, NY, 10314",Staten Island,https://millersalehouse.com/locations/staten-island/,+1 718-477-0112,"Mo-We,Su 11:30-24:00, Th 11:30-01:00, Fr-Sa 11:30-02:00",40.5750924,-74.169331,https://www.openstreetmap.org/node/8253381588,higher,148,yes
node/8262422493,Mr. Pizza,food_drink,restaurant: pizza,pizza,6.1,20,yes,casual team meal,"2325, Richmond Avenue, Staten Island, NY, 10314",Staten Island,https://www.mrpizzas-siny.com/,+1 718-370-0102,"Mo-Th 11:00-21:00; Fr,Sa 11:00-21:30; Su 11:00-20:30",40.5911851,-74.1641543,https://www.openstreetmap.org/node/8262422493,higher,148,yes
node/3969879903,Outback Steakhouse,food_drink,"restaurant: american, steak",american;steak,6.1,20,yes,casual team meal,"901, Mountain Avenue, Springfield, NJ, 07081",Springfield,https://locations.outback.com/new-jersey/springfield/901-mountain-avenue,+1 973-467-9095,"Mo-Th 11:00-22:00; Fr,Sa 11:00-23:00; Su 11:00-21:00",40.6853703,-74.3339472,https://www.openstreetmap.org/node/3969879903,higher,148,yes
way/904169960,Real Fruit Bubble Tea,food_drink,cafe,bubble_tea,6.1,20,yes,"low-key coffee, dessert, or small-group catch-up",,,,,,40.5816121,-74.166522,https://www.openstreetmap.org/way/904169960,medium,118,yes
